[{"Destination":{"lng":-87.6297982,"lat":41.8781136,"long_name":"Chicago; Illinois","place_id":"ChIJ7cv00DwsDogRAMDACa2m4K8"},"Stations":[[{"localName":"Los Angeles","placeId":"ChIJE9on3F3HwoAR9AhGJW_fL-I","typesFilter":"[\"locality\"|\"political\"]","location":{"lng":-118.2436849,"lat":34.0522342},"id":"7f7b7d8118ae8db8ed3f541159ac928c484d12ad","iconUrl":"https://maps.gstatic.com/mapfiles/place_api/icons/geocode-71.png"},{"localName":"Los Angeles City Hall","placeId":"ChIJ8U1fOU_GwoAR2t6y9AjKEKI","typesFilter":"[\"city_hall\"|\"premise\"|\"local_government_office\"|\"point_of_interest\"|\"establishment\"]","location":{"lng":-118.2428145,"lat":34.0537126},"id":"7f75c7158a6b7ceac9a8e54d1a28bacf6575a080","iconUrl":"https://maps.gstatic.com/mapfiles/place_api/icons/geocode-71.png"},{"localName":"Kawada Hotel","placeId":"ChIJk4UcFkzGwoARXX6vn9WOP1Q","typesFilter":"[\"lodging\"|\"point_of_interest\"|\"establishment\"]","location":{"lng":-118.2477057,"lat":34.0527171},"id":"a17b93ea9f4305523e93c90998efd9bf6e93d0c8","iconUrl":"https://maps.gstatic.com/mapfiles/place_api/icons/lodging-71.png"},{"localName":"Miyako Hotel Los Angeles","placeId":"ChIJN4KVwkfGwoARd235b3GLiYo","typesFilter":"[\"lodging\"|\"point_of_interest\"|\"establishment\"]","location":{"lng":-118.2402369,"lat":34.0496734},"id":"92ffe126a752d35a00f82e155d8b8edf9769a6ab","iconUrl":"https://maps.gstatic.com/mapfiles/place_api/icons/lodging-71.png"},{"localName":"Metro Plaza Hotel","placeId":"ChIJ2YN22kTGwoARshYCMmIIuQM","typesFilter":"[\"lodging\"|\"point_of_interest\"|\"establishment\"]","location":{"lng":-118.2376156,"lat":34.0588338},"id":"641731f7fe4d39901159452ed057b0d6e5e4a867","iconUrl":"https://maps.gstatic.com/mapfiles/place_api/icons/lodging-71.png"},{"localName":"Hilton Checkers Los Angeles","placeId":"ChIJU9oTm7THwoARF9dZF0pdn0U","typesFilter":"[\"lodging\"|\"restaurant\"|\"food\"|\"point_of_interest\"|\"establishment\"]","location":{"lng":-118.255,"lat":34.049626},"openingHours":{"open_now":true,"weekday_text":[]},"id":"a6002da196e36f74c4b4d3d2e50838973f9a9cfe","iconUrl":"https://maps.gstatic.com/mapfiles/place_api/icons/lodging-71.png"},{"localName":"Stay on Main Hotel","placeId":"ChIJQy-6bDXGwoARZln-R4MPoGQ","typesFilter":"[\"lodging\"|\"point_of_interest\"|\"establishment\"]","location":{"lng":-118.2507798,"lat":34.0442774},"id":"8e7a1b9dc43f5580a89669961defd25d7a67b263","iconUrl":"https://maps.gstatic.com/mapfiles/place_api/icons/lodging-71.png"},{"localName":"The L.A. Hotel Downtown","placeId":"ChIJ8wFsf63HwoARuDYVgplSZ9o","typesFilter":"[\"lodging\"|\"point_of_interest\"|\"establishment\"]","location":{"lng":-118.2554539,"lat":34.0550246},"openingHours":{"open_now":true,"weekday_text":[]},"id":"1f2377c0b75bb4122fd8eb31d565b3e891aa724e","iconUrl":"https://maps.gstatic.com/mapfiles/place_api/icons/lodging-71.png"},{"localName":"The Westin Bonaventure Hotel & Suites, Los Angeles","placeId":"ChIJ_X3CRLLHwoARRT04UFlchVE","typesFilter":"[\"lodging\"|\"point_of_interest\"|\"establishment\"]","location":{"lng":-118.255893,"lat":34.052784},"openingHours":{"open_now":true,"weekday_text":[]},"id":"6a13d5b0f8e7bf65e2e914291b13824e91c9f902","iconUrl":"https://maps.gstatic.com/mapfiles/place_api/icons/lodging-71.png"},{"localName":"The Los Angeles Athletic Club","placeId":"ChIJ-_RdD7XHwoARN0-Zc_fk4ZA","typesFilter":"[\"lodging\"|\"point_of_interest\"|\"establishment\"]","location":{"lng":-118.2550311,"lat":34.0465967},"id":"31ca02766c4c50704857ec437055af9b02093f06","iconUrl":"https://maps.gstatic.com/mapfiles/place_api/icons/lodging-71.png"},{"localName":"The Standard Downtown LA","placeId":"ChIJ71dGk7PHwoARHWr_QGbZIGU","typesFilter":"[\"lodging\"|\"restaurant\"|\"food\"|\"point_of_interest\"|\"establishment\"]","location":{"lng":-118.2569631,"lat":34.0501654},"id":"732a4100780e3d0cbc0242119ac7cd4683bd2232","iconUrl":"https://maps.gstatic.com/mapfiles/place_api/icons/lodging-71.png"},{"localName":"Best Western Plus Dragon Gate Inn","placeId":"ChIJHa52O1rGwoARer87_e2fc1M","typesFilter":"[\"lodging\"|\"point_of_interest\"|\"establishment\"]","location":{"lng":-118.238908,"lat":34.0631792},"openingHours":{"open_now":true,"weekday_text":[]},"id":"21641302d12987258eda8eea2e0e259c15ea6ec9","iconUrl":"https://maps.gstatic.com/mapfiles/place_api/icons/lodging-71.png"},{"localName":"Sheraton Los Angeles Downtown Hotel","placeId":"ChIJmRr_HrTHwoARjigvltPYgzo","typesFilter":"[\"lodging\"|\"point_of_interest\"|\"establishment\"]","location":{"lng":-118.258374,"lat":34.047858},"openingHours":{"open_now":true,"weekday_text":[]},"id":"9315b38925bc468c40f76500b94350528547c544","iconUrl":"https://maps.gstatic.com/mapfiles/place_api/icons/lodging-71.png"},{"localName":"The Milner Hotel Downtown Los Angeles","placeId":"ChIJ55_V6bbHwoARijuc6LIE0X8","typesFilter":"[\"lodging\"|\"point_of_interest\"|\"establishment\"]","location":{"lng":-118.260768,"lat":34.047144},"id":"982c028abac06d376497f4d905a2cf86aa77f265","iconUrl":"https://maps.gstatic.com/mapfiles/place_api/icons/lodging-71.png"},{"localName":"The Royal Pagoda Motel","placeId":"ChIJZ_AkO1nGwoARNy378Aycqnw","typesFilter":"[\"lodging\"|\"point_of_interest\"|\"establishment\"]","location":{"lng":-118.236335,"lat":34.066712},"id":"58721f91d742d0035aba4207de15a1c67087696d","iconUrl":"https://maps.gstatic.com/mapfiles/place_api/icons/lodging-71.png"},{"localName":"Knights Inn Los Angeles Central/Conventions Center Area","placeId":"ChIJy0JcEwDHwoARFYis_tnpviw","typesFilter":"[\"lodging\"|\"point_of_interest\"|\"establishment\"]","location":{"lng":-118.253828,"lat":34.0661834},"openingHours":{"open_now":true,"weekday_text":[]},"id":"b562d69a1a24a38169c7f725cafba2127263d5a6","iconUrl":"https://maps.gstatic.com/mapfiles/place_api/icons/lodging-71.png"},{"localName":"Americas Best Value Inn","placeId":"ChIJkzUHorrHwoAR0k1roUPEjvM","typesFilter":"[\"lodging\"|\"point_of_interest\"|\"establishment\"]","location":{"lng":-118.26468,"lat":34.0514703},"openingHours":{"open_now":true,"weekday_text":[]},"id":"b73c1d94b4e126a8838839de7aeae607a861ad6f","iconUrl":"https://maps.gstatic.com/mapfiles/place_api/icons/lodging-71.png"},{"localName":"City Center Hotel","placeId":"ChIJBRsno7rHwoARfpG-chZoMxM","typesFilter":"[\"lodging\"|\"point_of_interest\"|\"establishment\"]","location":{"lng":-118.2650043,"lat":34.051523},"id":"7f6514173826a109a82862519df691909daa91e2","iconUrl":"https://maps.gstatic.com/mapfiles/place_api/icons/lodging-71.png"},{"localName":"Hotel Figueroa","placeId":"ChIJzcQQfbfHwoAREpay4PPzicU","typesFilter":"[\"lodging\"|\"point_of_interest\"|\"establishment\"]","location":{"lng":-118.2640486,"lat":34.0455317},"openingHours":{"open_now":true,"weekday_text":[]},"id":"0a9302b82c33f27f2448edd68d3a18f90d473e27","iconUrl":"https://maps.gstatic.com/mapfiles/place_api/icons/lodging-71.png"},{"localName":"Glendale","placeId":"ChIJqYPwyDLAwoARpibJ_p6hP-U","typesFilter":"[\"locality\"|\"political\"]","location":{"lng":-118.255075,"lat":34.1425078},"id":"01b238406f7bd5ce1a195b0b80f227b6a8a78797","iconUrl":"https://maps.gstatic.com/mapfiles/place_api/icons/geocode-71.png"}],[{"localName":"Barnwell","placeId":"ChIJu37cLJ4Lz4AROQvV8_auu0Y","typesFilter":"[\"locality\"|\"political\"]","location":{"lng":-115.2358186,"lat":35.293045},"id":"2331948cd87fa75853b2e9594a4e2a2977f9f71f","iconUrl":"https://maps.gstatic.com/mapfiles/place_api/icons/geocode-71.png"},{"localName":"Hart Mine Airport","placeId":"ChIJb8l717kLz4ARecb2XmQyeQ8","typesFilter":"[\"airport\"|\"point_of_interest\"|\"establishment\"]","location":{"lng":-115.1924841,"lat":35.28332330000001},"id":"06a1c78a88f8a8f4826e77b4caac9d170f55f8c1","iconUrl":"https://maps.gstatic.com/mapfiles/place_api/icons/airport-71.png"},{"localName":"Goldome Mine and Mill","placeId":"ChIJQUpjCsEMz4ARMJbTxYIA4pE","typesFilter":"[\"point_of_interest\"|\"establishment\"]","location":{"lng":-115.2630615,"lat":35.3291488},"id":"a1904a32b2cf1920cc2b8587743d87bf91c0a1af","iconUrl":"https://maps.gstatic.com/mapfiles/place_api/icons/generic_business-71.png"},{"localName":"Vanderbilt","placeId":"ChIJsaAyD-0Mz4ARtCFAs81ELSI","typesFilter":"[\"locality\"|\"political\"]","location":{"lng":-115.25028,"lat":35.33056},"id":"66ba4aa001d50d80bd2ac94806f9c56ad3dcce86","iconUrl":"https://maps.gstatic.com/mapfiles/place_api/icons/geocode-71.png"}],[{"localName":"North Rim Country Store","placeId":"ChIJPTFJsv_NNIcRA96K2yeSIuw","typesFilter":"[\"gas_station\"|\"convenience_store\"|\"grocery_or_supermarket\"|\"food\"|\"car_repair\"|\"store\"|\"point_of_interest\"|\"establishment\"]","location":{"lng":-112.129898,"lat":36.413822},"openingHours":{"open_now":false,"weekday_text":[]},"id":"ae12170dfcc4edacb9867b4baab2d408e5d761b9","iconUrl":"https://maps.gstatic.com/mapfiles/place_api/icons/shopping-71.png"},{"localName":"Demotte Campground","placeId":"ChIJc8zDyr0QM4cRB0zLLv21aeI","typesFilter":"[\"campground\"|\"park\"|\"lodging\"|\"point_of_interest\"|\"establishment\"]","location":{"lng":-112.1354448,"lat":36.4113774},"id":"491e6c0c25829eab73abcb3e39604df4f75fa598","iconUrl":"https://maps.gstatic.com/mapfiles/place_api/icons/camping-71.png"},{"localName":"Kaibab Lodge","placeId":"ChIJD1CMyS1kM4cR3MvMJw6aJ7M","typesFilter":"[\"lodging\"|\"point_of_interest\"|\"establishment\"]","location":{"lng":-112.1336746,"lat":36.41391369999999},"id":"f30ea9e36c6b64f35a39b9b941bfd4470f587618","iconUrl":"https://maps.gstatic.com/mapfiles/place_api/icons/lodging-71.png"},{"localName":"Mather Point","placeId":"ChIJ9zJtDUh7M4cRsyYFdHHwOlY","typesFilter":"[\"park\"|\"point_of_interest\"|\"establishment\"]","location":{"lng":-112.0363664,"lat":36.45059500000001},"id":"bd72c84eddac403a03c76b736714046f111ab5e5","iconUrl":"https://maps.gstatic.com/mapfiles/place_api/icons/generic_recreational-71.png"},{"localName":"Dog Canyon Apron","placeId":"ChIJ_Q54H1ZkM4cRgy99-l-Qlqc","typesFilter":"[\"park\"|\"point_of_interest\"|\"establishment\"]","location":{"lng":-112.0955181,"lat":36.42376590000001},"id":"13126ba0565b92d94f4f2e1a0d1ff4f144bb7e5b","iconUrl":"https://maps.gstatic.com/mapfiles/place_api/icons/generic_recreational-71.png"},{"localName":"Forever Resorts Grand Cyn Ldg","placeId":"ChIJVRPa9eljM4cRVTtkndWiBVM","typesFilter":"[\"point_of_interest\"|\"establishment\"]","location":{"lng":-112.1252726,"lat":36.4723728},"id":"f1a2ed5063e838ec036dbca71eb4cf499841b0a5","iconUrl":"https://maps.gstatic.com/mapfiles/place_api/icons/generic_business-71.png"},{"localName":"Crystal Spring Apron","placeId":"ChIJFzODCoFlM4cR1z667Ye6pCg","typesFilter":"[\"park\"|\"point_of_interest\"|\"establishment\"]","location":{"lng":-112.098326,"lat":36.3793536},"id":"e68310d515df26f274cdbdaf9b718d9f9679b5af","iconUrl":"https://maps.gstatic.com/mapfiles/place_api/icons/generic_recreational-71.png"}],[{"localName":"Pleasant View","placeId":"ChIJk0Iw4IgKOYcR3fc2r2DZJdE","typesFilter":"[\"locality\"|\"political\"]","location":{"lng":-108.7654801,"lat":37.5883253},"id":"c2f969961bf9b0c8075573718ac206351ad706cb","iconUrl":"https://maps.gstatic.com/mapfiles/place_api/icons/geocode-71.png"},{"localName":"US Post Office","placeId":"ChIJD1rRRKsJOYcRYQhUXloKYeE","typesFilter":"[\"post_office\"|\"finance\"|\"point_of_interest\"|\"establishment\"]","location":{"lng":-108.7652642,"lat":37.5893851},"openingHours":{"open_now":true,"weekday_text":[]},"id":"5444d639641781272ebdf38e2d39825a6449dde8","iconUrl":"https://maps.gstatic.com/mapfiles/place_api/icons/post_office-71.png"},{"localName":"US Post Office","placeId":"ChIJtzWtvo4LOYcRMXt1W2LNYYM","typesFilter":"[\"post_office\"|\"finance\"|\"point_of_interest\"|\"establishment\"]","location":{"lng":-108.7192974,"lat":37.5298963},"openingHours":{"open_now":true,"weekday_text":[]},"id":"c12bd751096c8687c975f7882f8bb3830551f124","iconUrl":"https://maps.gstatic.com/mapfiles/place_api/icons/post_office-71.png"},{"localName":"Wiley Wales Powerchutes","placeId":"ChIJ43TYjEenOYcRBjFTDufhwY0","typesFilter":"[\"point_of_interest\"|\"establishment\"]","location":{"lng":-108.830827,"lat":37.549821},"id":"efe4fea9c33d88a8bbf68715fe92de09e5ac2ac9","iconUrl":"https://maps.gstatic.com/mapfiles/place_api/icons/school-71.png"},{"localName":"Pleasant View Fire Department","placeId":"ChIJo8GBE6sJOYcRkTl-w1xQvj0","typesFilter":"[\"fire_station\"|\"point_of_interest\"|\"establishment\"]","location":{"lng":-108.764361,"lat":37.588652},"id":"de5749112d8ff978ed6ea5f896699636324c1a3a","iconUrl":"https://maps.gstatic.com/mapfiles/place_api/icons/generic_business-71.png"},{"localName":"Career Consulting Services","placeId":"ChIJ7-JLveoMOYcRaFYASBFmiIg","typesFilter":"[\"point_of_interest\"|\"establishment\"]","location":{"lng":-108.7554,"lat":37.5132},"id":"90de5521db6d12683b1231fc14355e3d7e28cdd0","iconUrl":"https://maps.gstatic.com/mapfiles/place_api/icons/civic_building-71.png"},{"localName":"Woods Canyon Archaeological","placeId":"ChIJ5YFCSYcKOYcRRJPQjvtoyaA","typesFilter":"[\"point_of_interest\"|\"establishment\"]","location":{"lng":-108.8012507,"lat":37.5008678},"id":"b7bbb3820a4cc91180e9c4e8aa5427e7fcc11cfa","iconUrl":"https://maps.gstatic.com/mapfiles/place_api/icons/generic_business-71.png"},{"localName":"Rico Telephone Co","placeId":"ChIJ5Qd8XKsJOYcRYAzOK-RNICI","typesFilter":"[\"point_of_interest\"|\"establishment\"]","location":{"lng":-108.7656151,"lat":37.5892088},"id":"b2d0fe2752d38dfa73ad2ce227a32ad3ade5ee7c","iconUrl":"https://maps.gstatic.com/mapfiles/place_api/icons/generic_business-71.png"},{"localName":"SW Colorado Research Center","placeId":"ChIJKxqtZe8LOYcRH4ZeTEA2tPA","typesFilter":"[\"point_of_interest\"|\"establishment\"]","location":{"lng":-108.728393,"lat":37.54425599999999},"id":"076058b93a7b0ad3183962c304334945eeb31423","iconUrl":"https://maps.gstatic.com/mapfiles/place_api/icons/school-71.png"},{"localName":"HEMP-INGWAY","placeId":"ChIJR2oJcwsJOYcRjGZ2aVzFfCQ","typesFilter":"[\"food\"|\"point_of_interest\"|\"establishment\"]","location":{"lng":-108.7554726,"lat":37.5733111},"id":"6072f482ad36792fe0aed78eb71685bd7a8ef947","iconUrl":"https://maps.gstatic.com/mapfiles/place_api/icons/generic_business-71.png"},{"localName":"Legacy Imagery","placeId":"ChIJKxqtZe8LOYcR0Fl0OE6XDTk","typesFilter":"[\"point_of_interest\"|\"establishment\"]","location":{"lng":-108.7283927,"lat":37.5442559},"id":"27510a5e6a5190724585266e47ecf5f118b611ea","iconUrl":"https://maps.gstatic.com/mapfiles/place_api/icons/generic_business-71.png"},{"localName":"Video Repair Shop","placeId":"ChIJE1VUGI0LOYcRpjvAB3py6pY","typesFilter":"[\"point_of_interest\"|\"establishment\"]","location":{"lng":-108.722396,"lat":37.53438999999999},"openingHours":{"open_now":false,"weekday_text":[]},"id":"e3711fbb6caddde1dd3731ac5bbee6d6c44be82d","iconUrl":"https://maps.gstatic.com/mapfiles/place_api/icons/generic_business-71.png"},{"localName":"Reconnection Co","placeId":"ChIJO_zPv-SnOYcRwNJzL8BvaEY","typesFilter":"[\"point_of_interest\"|\"establishment\"]","location":{"lng":-108.821714,"lat":37.615785},"id":"ba4ee09b3f52cefc27f36064a7fdf34b966019d9","iconUrl":"https://maps.gstatic.com/mapfiles/place_api/icons/generic_business-71.png"},{"localName":"Judd's Custom Cues","placeId":"ChIJjXHe9YwMOYcRlsdFIhzrJrE","typesFilter":"[\"store\"|\"point_of_interest\"|\"establishment\"]","location":{"lng":-108.691692,"lat":37.513135},"id":"965375036e1acdb47007cd6a626caf8f54b18b6e","iconUrl":"https://maps.gstatic.com/mapfiles/place_api/icons/shopping-71.png"},{"localName":"Church of Christ","placeId":"ChIJoyCPsqkJOYcRVu8Hn6dkzb0","typesFilter":"[\"church\"|\"place_of_worship\"|\"point_of_interest\"|\"establishment\"]","location":{"lng":-108.751771,"lat":37.5709469},"id":"73c86dbce34dfc8d26515f5d0bf3ec80d3f31967","iconUrl":"https://maps.gstatic.com/mapfiles/place_api/icons/worship_general-71.png"},{"localName":"Southwest Carpet & Upholstery","placeId":"ChIJPYhGveoMOYcR7Wefx6phYrU","typesFilter":"[\"laundry\"|\"point_of_interest\"|\"establishment\"]","location":{"lng":-108.776,"lat":37.501},"id":"fad6c904e10b123ae87aaf442f65c5eca382d1d2","iconUrl":"https://maps.gstatic.com/mapfiles/place_api/icons/generic_business-71.png"},{"localName":"Herrmann Construction","placeId":"ChIJBwWWz5gJOYcR0rZIjVmGuIY","typesFilter":"[\"general_contractor\"|\"point_of_interest\"|\"establishment\"]","location":{"lng":-108.765096,"lat":37.568764},"id":"5f93a19a96748b60ff84482d53651fd2be4ebfc3","iconUrl":"https://maps.gstatic.com/mapfiles/place_api/icons/generic_business-71.png"},{"localName":"Diamond D Processing","placeId":"ChIJCdUBN74LOYcR211eq9XMc7w","typesFilter":"[\"food\"|\"store\"|\"point_of_interest\"|\"establishment\"]","location":{"lng":-108.7376234,"lat":37.5298862},"id":"0b124581b6c630543adf0348b709cde2f7fb786c","iconUrl":"https://maps.gstatic.com/mapfiles/place_api/icons/shopping-71.png"},{"localName":"Emmanuel Church","placeId":"ChIJz4DcZ90LOYcR2uQ8xiIwbKg","typesFilter":"[\"church\"|\"place_of_worship\"|\"point_of_interest\"|\"establishment\"]","location":{"lng":-108.7371719,"lat":37.54469270000001},"id":"763171f72cf61ed73212ea79c981f6738933bf6d","iconUrl":"https://maps.gstatic.com/mapfiles/place_api/icons/worship_general-71.png"},{"localName":"Yellow Jacket","placeId":"ChIJ5drAbYsLOYcR-mdeuuxiPn4","typesFilter":"[\"locality\"|\"political\"]","location":{"lng":-108.7173212,"lat":37.53443499999999},"id":"3938b9b385445ea7c266504886337a56eb930ee1","iconUrl":"https://maps.gstatic.com/mapfiles/place_api/icons/geocode-71.png"}],[{"localName":"American Adventure Expeditions","placeId":"ChIJa0lRr_KSFIcRYuesMTtv7IY","typesFilter":"[\"travel_agency\"|\"point_of_interest\"|\"establishment\"]","location":{"lng":-105.3749768,"lat":38.4854891},"openingHours":{"open_now":false,"weekday_text":[]},"id":"3bf127a7a283d299b0e4034016b588fcb9edc047","iconUrl":"https://maps.gstatic.com/mapfiles/place_api/icons/generic_business-71.png"},{"localName":"Five Points Campsite","placeId":"ChIJ-UT6GfntFIcRqflh20Zbcak","typesFilter":"[\"campground\"|\"park\"|\"lodging\"|\"point_of_interest\"|\"establishment\"]","location":{"lng":-105.4928875,"lat":38.45275269999999},"id":"6eab5152e9348435ce22067a33056f14a42283fb","iconUrl":"https://maps.gstatic.com/mapfiles/place_api/icons/camping-71.png"},{"localName":"Front Range Aggregates LLC","placeId":"ChIJ3eRqLZOSFIcRq8ces2Q_Ia8","typesFilter":"[\"general_contractor\"|\"point_of_interest\"|\"establishment\"]","location":{"lng":-105.3752452,"lat":38.4858458},"id":"dad334ac541c12d7a19a2ddc350fef7572b0ba03","iconUrl":"https://maps.gstatic.com/mapfiles/place_api/icons/generic_business-71.png"},{"localName":"Benedictine Fellowship of Saint Laurence","placeId":"ChIJ7wufXxLsFIcRrUwL1gllNNs","typesFilter":"[\"place_of_worship\"|\"point_of_interest\"|\"establishment\"]","location":{"lng":-105.4801229,"lat":38.5217199},"id":"3b1fde6edbfab54e9503117f1698076e660a470a","iconUrl":"https://maps.gstatic.com/mapfiles/place_api/icons/generic_business-71.png"},{"localName":"Prospect Peak","placeId":"ChIJvTS4ymfuFIcR5qrhLQAFhJs","typesFilter":"[\"airport\"|\"point_of_interest\"|\"establishment\"]","location":{"lng":-105.5211111,"lat":38.4777777},"id":"13ca5c836d7e70e2055e959d2f63489c2f345c8e","iconUrl":"https://maps.gstatic.com/mapfiles/place_api/icons/airport-71.png"},{"localName":"Twelvemile School","placeId":"ChIJ03QCKE2TFIcR1TrwR-gjVas","typesFilter":"[\"school\"|\"point_of_interest\"|\"establishment\"]","location":{"lng":-105.4061044,"lat":38.53055149999999},"id":"b5ef45211616e11a83ba2dc083df420facbd48c3","iconUrl":"https://maps.gstatic.com/mapfiles/place_api/icons/school-71.png"},{"localName":"Black Range Minerals","placeId":"ChIJtd-zAdXuFIcReFLQ1Uifp1E","typesFilter":"[\"food\"|\"point_of_interest\"|\"establishment\"]","location":{"lng":-105.544627,"lat":38.522301},"id":"6496a4804b4311bdf181ee2a59ff80bbdbf4d6cd","iconUrl":"https://maps.gstatic.com/mapfiles/place_api/icons/generic_business-71.png"},{"localName":"Martin Marietta Aggregates","placeId":"ChIJnU03c8mSFIcRk68NYz6KMq4","typesFilter":"[\"point_of_interest\"|\"establishment\"]","location":{"lng":-105.3995293,"lat":38.4856661},"openingHours":{"open_now":false,"weekday_text":[]},"id":"97ebc85ac406e359a2203d5e2b33909ba8b1162d","iconUrl":"https://maps.gstatic.com/mapfiles/place_api/icons/generic_business-71.png"},{"localName":"Tallahassee School","placeId":"ChIJxZdCTQHpFIcRTjv5ObEJZ1M","typesFilter":"[\"school\"|\"point_of_interest\"|\"establishment\"]","location":{"lng":-105.5416637,"lat":38.56166229999999},"id":"edf906f13d8d5f645a55085feb307c535452a844","iconUrl":"https://maps.gstatic.com/mapfiles/place_api/icons/school-71.png"},{"localName":"Pinnacle Rock","placeId":"ChIJN5jVmR_uFIcRfZOacnoB_h0","typesFilter":"[\"park\"|\"point_of_interest\"|\"establishment\"]","location":{"lng":-105.5227231,"lat":38.4474753},"id":"c7ffba9d3101a8d1e5bd43e83af6c075d81cd1ef","iconUrl":"https://maps.gstatic.com/mapfiles/place_api/icons/generic_recreational-71.png"},{"localName":"SMS Ranch","placeId":"ChIJF2_Sv6eTFIcRDBEJWC9ok30","typesFilter":"[\"food\"|\"point_of_interest\"|\"establishment\"]","location":{"lng":-105.358451,"lat":38.520411},"id":"5caee7a0e0c5eb19c40ac49ea026c1e7a9df8999","iconUrl":"https://maps.gstatic.com/mapfiles/place_api/icons/generic_business-71.png"},{"localName":"Sheep Basin","placeId":"ChIJxRodGPntFIcRkRimEWZoGwo","typesFilter":"[\"campground\"|\"premise\"|\"park\"|\"lodging\"|\"point_of_interest\"|\"establishment\"]","location":{"lng":-105.4931688,"lat":38.4527401},"id":"656f448fce8746dba10f6e66d04680b4703592b4","iconUrl":"https://maps.gstatic.com/mapfiles/place_api/icons/geocode-71.png"}],[{"localName":"Kanorado","placeId":"ChIJ2VBCzyJVC4cRqmT4Lt5ti9g","typesFilter":"[\"locality\"|\"political\"]","location":{"lng":-102.0379595,"lat":39.33305420000001},"id":"6e877d91b50e76c34f230d5e42dff14233cf78e1","iconUrl":"https://maps.gstatic.com/mapfiles/place_api/icons/geocode-71.png"},{"localName":"US Post Office","placeId":"ChIJYeonpiJVC4cRaiyy2-Fp0y8","typesFilter":"[\"post_office\"|\"finance\"|\"point_of_interest\"|\"establishment\"]","location":{"lng":-102.0368366,"lat":39.3351108},"id":"a2cfeef550bb6b0f030409fb4a17d4df35685c39","iconUrl":"https://maps.gstatic.com/mapfiles/place_api/icons/post_office-71.png"},{"localName":"Franz Club Lambs","placeId":"ChIJKdlIMc5Vc4cRYCmiDgnCOXg","typesFilter":"[\"food\"|\"point_of_interest\"|\"establishment\"]","location":{"lng":-102.1093961,"lat":39.4183477},"id":"a4635b767b6c2f207db2e8b4e59c7aa3bf630aab","iconUrl":"https://maps.gstatic.com/mapfiles/place_api/icons/generic_business-71.png"},{"localName":"City of Kanorado","placeId":"ChIJodQ0Vz1VC4cRd0HVmD7nUUc","typesFilter":"[\"point_of_interest\"|\"establishment\"]","location":{"lng":-102.0381686,"lat":39.33508640000001},"id":"9fc327f74b6fd61244afad126b1eec7560fa68d5","iconUrl":"https://maps.gstatic.com/mapfiles/place_api/icons/civic_building-71.png"},{"localName":"Frontier Ag Elevator","placeId":"ChIJfer8jBhVC4cRpiMNFKOy4VA","typesFilter":"[\"gas_station\"|\"food\"|\"car_repair\"|\"point_of_interest\"|\"establishment\"]","location":{"lng":-102.0349233,"lat":39.3337649},"id":"a076773109a2e3b6f7f35099c0ed193ca4e8f2fe","iconUrl":"https://maps.gstatic.com/mapfiles/place_api/icons/generic_business-71.png"},{"localName":"CENEX","placeId":"ChIJEYktpiJVC4cRsCj6asQQzCE","typesFilter":"[\"gas_station\"|\"point_of_interest\"|\"establishment\"]","location":{"lng":-102.0366074,"lat":39.33401919999999},"openingHours":{"open_now":false,"weekday_text":[]},"id":"bd85b10aa9b144026b80d669bf38b23940dd6adc","iconUrl":"https://maps.gstatic.com/mapfiles/place_api/icons/gas_station-71.png"},{"localName":"Wright International Airport","placeId":"ChIJAdvdCLKrdIcR4AB6brIHYtk","typesFilter":"[\"airport\"|\"point_of_interest\"|\"establishment\"]","location":{"lng":-102.0212925,"lat":39.4083302},"id":"841109fa7888544271af9644fa26b0d43024a523","iconUrl":"https://maps.gstatic.com/mapfiles/place_api/icons/airport-71.png"},{"localName":"Franz Beefmasters","placeId":"ChIJLawjKrFVc4cR3d1qoRbC_YY","typesFilter":"[\"point_of_interest\"|\"establishment\"]","location":{"lng":-102.1090672,"lat":39.4037727},"id":"6540a5e0929f087cb835bdeaf38f99ea1970327c","iconUrl":"https://maps.gstatic.com/mapfiles/place_api/icons/generic_business-71.png"},{"localName":"Kanorado Cemetery","placeId":"ChIJOY0DUDpVC4cRiVX36CJjAwc","typesFilter":"[\"cemetery\"|\"point_of_interest\"|\"establishment\"]","location":{"lng":-102.0411259,"lat":39.3427677},"id":"ffb4e97750033679545d88ccf5319675d81406e1","iconUrl":"https://maps.gstatic.com/mapfiles/place_api/icons/cemetery_grave-71.png"},{"localName":"Legacy Electric","placeId":"ChIJ2xzr_vmrdIcR0H5ocZoStCY","typesFilter":"[\"electrician\"|\"point_of_interest\"|\"establishment\"]","location":{"lng":-101.9859094,"lat":39.43243210000001},"id":"2e5d3428ceecfb7a93ae6ea681a77deed816865f","iconUrl":"https://maps.gstatic.com/mapfiles/place_api/icons/generic_business-71.png"},{"localName":"Witzell Farms","placeId":"ChIJDWgv_dqpdIcRdjmWg9BxMkc","typesFilter":"[\"food\"|\"point_of_interest\"|\"establishment\"]","location":{"lng":-102.0625852,"lat":39.4625349},"id":"8f3188d91d1a5d2ee9ac45e2ba1d1e254db37fc4","iconUrl":"https://maps.gstatic.com/mapfiles/place_api/icons/generic_business-71.png"},{"localName":"North Winds Surveys Inc","placeId":"ChIJT6H10DxVC4cR6JyAlqsB9uw","typesFilter":"[\"point_of_interest\"|\"establishment\"]","location":{"lng":-102.0381681,"lat":39.33779759999999},"id":"06bd9b6f3ae4d9bfbd9dba7209041ac1dbbfa91d","iconUrl":"https://maps.gstatic.com/mapfiles/place_api/icons/generic_business-71.png"},{"localName":"United States Postal Service","placeId":"ChIJsd3VriJVC4cRTp9IrlXedDU","typesFilter":"[\"post_office\"|\"finance\"|\"point_of_interest\"|\"establishment\"]","location":{"lng":-102.0370272,"lat":39.3352248},"openingHours":{"open_now":false,"weekday_text":[]},"id":"23ef1e288e72ef8c37a1fe23e107fbde2f98fd63","iconUrl":"https://maps.gstatic.com/mapfiles/place_api/icons/post_office-71.png"},{"localName":"Kanorado Senior Citizen","placeId":"ChIJv7T4pSJVC4cRMtoTKjLD3UU","typesFilter":"[\"point_of_interest\"|\"establishment\"]","location":{"lng":-102.0368374,"lat":39.3352465},"id":"282cda76b088673f472447dc8b84a9246502a496","iconUrl":"https://maps.gstatic.com/mapfiles/place_api/icons/generic_business-71.png"},{"localName":"King's Cafe","placeId":"ChIJUXMepiJVC4cR-kVT8K18c9o","typesFilter":"[\"restaurant\"|\"food\"|\"point_of_interest\"|\"establishment\"]","location":{"lng":-102.0368369,"lat":39.3351651},"openingHours":{"open_now":false,"weekday_text":[]},"id":"caed948a6949b599ac0f2e6729c949f4c1e36cdc","iconUrl":"https://maps.gstatic.com/mapfiles/place_api/icons/restaurant-71.png"},{"localName":"Kanorado Co-Op Oil","placeId":"ChIJz4ktpiJVC4cR63QffAvy7aQ","typesFilter":"[\"gas_station\"|\"car_repair\"|\"point_of_interest\"|\"establishment\"]","location":{"lng":-102.0364197,"lat":39.3340444},"id":"9b307af20485fc4dd6964caa0d46137f2a27be74","iconUrl":"https://maps.gstatic.com/mapfiles/place_api/icons/generic_business-71.png"},{"localName":"King's Cafe","placeId":"ChIJTw_ajhdVC4cRE1-fsrrYk_c","typesFilter":"[\"restaurant\"|\"food\"|\"point_of_interest\"|\"establishment\"]","location":{"lng":-102.0379595,"lat":39.33305420000001},"openingHours":{"open_now":false,"weekday_text":[]},"id":"f89eff23542bbe62c9a36263620d5237692cad81","iconUrl":"https://maps.gstatic.com/mapfiles/place_api/icons/restaurant-71.png"},{"localName":"Kanorado Fire Department","placeId":"ChIJTw_ajhdVC4cRhkjAouu9-BA","typesFilter":"[\"fire_station\"|\"point_of_interest\"|\"establishment\"]","location":{"lng":-102.0379595,"lat":39.33305420000001},"id":"796c40a8efd87dfc8e73acf4b1f171001c8ebe7e","iconUrl":"https://maps.gstatic.com/mapfiles/place_api/icons/generic_business-71.png"},{"localName":"Bear Valley School","placeId":"ChIJuShFxKxXc4cRBhfr4kPU7Ww","typesFilter":"[\"school\"|\"point_of_interest\"|\"establishment\"]","location":{"lng":-102.1099079,"lat":39.4711063},"id":"f847b4cc4742f015eb0b328a4de5de6fb0db7134","iconUrl":"https://maps.gstatic.com/mapfiles/place_api/icons/school-71.png"},{"localName":"Bear Valley Cemetery","placeId":"ChIJTxixYDdWc4cRHKNTMfz5IIs","typesFilter":"[\"cemetery\"|\"premise\"|\"point_of_interest\"|\"establishment\"]","location":{"lng":-102.0905749,"lat":39.4625679},"id":"c29e8428ffcf8ec2043899eaa0c17ab7df7558a4","iconUrl":"https://maps.gstatic.com/mapfiles/place_api/icons/geocode-71.png"}],[{"localName":"Cowles","placeId":"ChIJH2FEY39UmIcRnMpnlmXVSz4","typesFilter":"[\"locality\"|\"political\"]","location":{"lng":-98.4475575,"lat":40.1722355},"id":"4d1c3d8179c0d54d647108f258d8e66b0df2a921","iconUrl":"https://maps.gstatic.com/mapfiles/place_api/icons/geocode-71.png"},{"localName":"Dane Church","placeId":"ChIJSbPoZUr6mIcR-jgHJRpAmOc","typesFilter":"[\"church\"|\"place_of_worship\"|\"point_of_interest\"|\"establishment\"]","location":{"lng":-98.5950651,"lat":40.1902915},"id":"2201af755d74c57f35736364fc6b7edac108266d","iconUrl":"https://maps.gstatic.com/mapfiles/place_api/icons/worship_general-71.png"},{"localName":"New Virginia Church","placeId":"ChIJUYIEmi_7mIcR1a3c37VUZk0","typesFilter":"[\"church\"|\"place_of_worship\"|\"point_of_interest\"|\"establishment\"]","location":{"lng":-98.6511862,"lat":40.197503},"id":"7c19ab3a63931740959ecfd317a26a6a39f2610a","iconUrl":"https://maps.gstatic.com/mapfiles/place_api/icons/worship_general-71.png"},{"localName":"Gottsch Feed Yard","placeId":"ChIJ5_LlNHnwmIcRWYwfGsirNsU","typesFilter":"[\"car_repair\"|\"store\"|\"point_of_interest\"|\"establishment\"]","location":{"lng":-98.4905769,"lat":40.1476658},"id":"077a6ea6fc39040ea741178194915e2081ebd24f","iconUrl":"https://maps.gstatic.com/mapfiles/place_api/icons/shopping-71.png"},{"localName":"Red Cloud Animal Health LLC","placeId":"ChIJTzxtZWb2mIcRciu48EZGncY","typesFilter":"[\"veterinary_care\"|\"point_of_interest\"|\"establishment\"]","location":{"lng":-98.5195079,"lat":40.1040255},"id":"2a5c9a8053aeb92780cc05b90762149672422ec2","iconUrl":"https://maps.gstatic.com/mapfiles/place_api/icons/generic_business-71.png"},{"localName":"Bells Sleepy Valley Campground","placeId":"ChIJx1aqZFv2mIcRffRFbusq8OM","typesFilter":"[\"campground\"|\"park\"|\"lodging\"|\"point_of_interest\"|\"establishment\"]","location":{"lng":-98.5192272,"lat":40.1027913},"id":"9b8a699a4611c364f54dcea4efd13ad695b43b0a","iconUrl":"https://maps.gstatic.com/mapfiles/place_api/icons/camping-71.png"},{"localName":"Green Acres Motel & RV Park","placeId":"ChIJE3a_emb2mIcR4pwPdxXtmy4","typesFilter":"[\"rv_park\"|\"lodging\"|\"point_of_interest\"|\"establishment\"]","location":{"lng":-98.5196251,"lat":40.1024155},"id":"5b33c8c03a985d25bb519a1bf075baa145ef22a8","iconUrl":"https://maps.gstatic.com/mapfiles/place_api/icons/lodging-71.png"},{"localName":"Batin Cemetery","placeId":"ChIJ6zaJCR1WmIcRtNG8U18M2G0","typesFilter":"[\"cemetery\"|\"premise\"|\"point_of_interest\"|\"establishment\"]","location":{"lng":-98.4823601,"lat":40.2298315},"id":"0b811dd16c30041b54054b9eb922cb5df807aa27","iconUrl":"https://maps.gstatic.com/mapfiles/place_api/icons/geocode-71.png"},{"localName":"Pleasant Prairie Cemetery","placeId":"ChIJwf5EqQvwmIcRyzn7pef_OPw","typesFilter":"[\"cemetery\"|\"premise\"|\"point_of_interest\"|\"establishment\"]","location":{"lng":-98.6410671,"lat":40.1463926},"id":"23b4fb0c4e8c4f4a508978d8757652742ddd5d65","iconUrl":"https://maps.gstatic.com/mapfiles/place_api/icons/geocode-71.png"},{"localName":"Catherton Cemetery","placeId":"ChIJlUJZTpf8mIcR5SEjg9AeGBg","typesFilter":"[\"cemetery\"|\"premise\"|\"point_of_interest\"|\"establishment\"]","location":{"lng":-98.6330766,"lat":40.2421192},"id":"a0ec854c0ab2aef8c0e3ca171c2348fd6d296023","iconUrl":"https://maps.gstatic.com/mapfiles/place_api/icons/geocode-71.png"},{"localName":"New Virginia Cemetery","placeId":"ChIJQ3srCNfkmIcRiscD1-CPUAk","typesFilter":"[\"cemetery\"|\"premise\"|\"point_of_interest\"|\"establishment\"]","location":{"lng":-98.6691693,"lat":40.1905577},"id":"a7d534d3801bd82a6bf6a234dfd4e004521c6177","iconUrl":"https://maps.gstatic.com/mapfiles/place_api/icons/geocode-71.png"}],[{"localName":"Villisca","placeId":"ChIJ_6E6BvhL64cRRwUOiZ--Nhk","typesFilter":"[\"locality\"|\"political\"]","location":{"lng":-94.9766416,"lat":40.9296034},"id":"e5d03db0112a51fb204530e935a7fc44fba21840","iconUrl":"https://maps.gstatic.com/mapfiles/place_api/icons/geocode-71.png"},{"localName":"Johnston Communications","placeId":"ChIJ1d2oI_5L64cRS7wamSdBgcw","typesFilter":"[\"point_of_interest\"|\"establishment\"]","location":{"lng":-94.97712539999999,"lat":40.9286499},"openingHours":{"open_now":false,"weekday_text":[]},"id":"bf99f6b3ff266003c6dd0db9e3165f3e1afd4081","iconUrl":"https://maps.gstatic.com/mapfiles/place_api/icons/generic_business-71.png"},{"localName":"US Post Office","placeId":"ChIJe75iBf5L64cRFSwa6wRfekw","typesFilter":"[\"post_office\"|\"finance\"|\"point_of_interest\"|\"establishment\"]","location":{"lng":-94.97729869999999,"lat":40.9277101},"openingHours":{"open_now":false,"weekday_text":[]},"id":"d6dd18e4c485f8f34723827b9116ce460ffea891","iconUrl":"https://maps.gstatic.com/mapfiles/place_api/icons/post_office-71.png"},{"localName":"Bank Iowa","placeId":"ChIJNWR4Lf5L64cR8vmwtWriYc4","typesFilter":"[\"bank\"|\"atm\"|\"finance\"|\"point_of_interest\"|\"establishment\"]","location":{"lng":-94.9772682,"lat":40.92957029999999},"openingHours":{"open_now":false,"weekday_text":[]},"id":"d860ed74d4ea78419b7c242133cf998201f9545a","iconUrl":"https://maps.gstatic.com/mapfiles/place_api/icons/bank_dollar-71.png"},{"localName":"Wolfe Funeral Home","placeId":"ChIJ3Ru_XP5L64cRzy8BAWkDuKE","typesFilter":"[\"funeral_home\"|\"point_of_interest\"|\"establishment\"]","location":{"lng":-94.9786783,"lat":40.9286557},"id":"b60a9081a218bdb5399b0a5f7670b573abdd898b","iconUrl":"https://maps.gstatic.com/mapfiles/place_api/icons/generic_business-71.png"},{"localName":"Nodaway Valley Equipment","placeId":"ChIJIcyoRvhL64cRD_CO0W4cFck","typesFilter":"[\"food\"|\"point_of_interest\"|\"establishment\"]","location":{"lng":-94.985699,"lat":40.929388},"id":"ee64783de2834e866d9c6d78d68b4d8482e63cfc","iconUrl":"https://maps.gstatic.com/mapfiles/place_api/icons/generic_business-71.png"},{"localName":"Villisca Public Library","placeId":"ChIJWcLM2v9L64cR7frgmqRgHcc","typesFilter":"[\"library\"|\"point_of_interest\"|\"establishment\"]","location":{"lng":-94.97729840000001,"lat":40.9304721},"id":"72261bd59d6cc0d2bfbd54a0aeb4039206c894ba","iconUrl":"https://maps.gstatic.com/mapfiles/place_api/icons/school-71.png"},{"localName":"Villisca Furniture & Antiques","placeId":"ChIJbz0vI_5L64cRONNFMaVl24c","typesFilter":"[\"store\"|\"point_of_interest\"|\"establishment\"]","location":{"lng":-94.97726949999999,"lat":40.9286368},"id":"9ff916863ad1c5602c4a059701b42c06e470041f","iconUrl":"https://maps.gstatic.com/mapfiles/place_api/icons/shopping-71.png"},{"localName":"Villisca City Hall","placeId":"ChIJNY0HLv5L64cRGKIhW83khPg","typesFilter":"[\"local_government_office\"|\"point_of_interest\"|\"establishment\"]","location":{"lng":-94.977504,"lat":40.9289318},"id":"00c597c6773f5386ea9e84f0ae04ccded0577c97","iconUrl":"https://maps.gstatic.com/mapfiles/place_api/icons/civic_building-71.png"},{"localName":"Tyson Fresh Meats","placeId":"ChIJB5WHzAVK64cREnwoqubs1CI","typesFilter":"[\"food\"|\"store\"|\"point_of_interest\"|\"establishment\"]","location":{"lng":-94.9860523,"lat":40.85728330000001},"id":"90b5e21da74f9ba9883aec6c0e1f4e71f7a4d6ec","iconUrl":"https://maps.gstatic.com/mapfiles/place_api/icons/shopping-71.png"},{"localName":"Crawford Co & Real Estate","placeId":"ChIJzRvXIv5L64cREF3RPRx5_2w","typesFilter":"[\"insurance_agency\"|\"point_of_interest\"|\"establishment\"]","location":{"lng":-94.977271,"lat":40.928599},"id":"0fe9ffb71b98cbb53485cd9fad70e2f7a448f996","iconUrl":"https://maps.gstatic.com/mapfiles/place_api/icons/generic_business-71.png"},{"localName":"Villisca Farmers Telephone Co","placeId":"ChIJ_Qm1XP5L64cRzIZEs4soJjY","typesFilter":"[\"point_of_interest\"|\"establishment\"]","location":{"lng":-94.9786206,"lat":40.9286555},"id":"74fe30fcc41fdd32bf8cc341f32645b9ac8dcdc8","iconUrl":"https://maps.gstatic.com/mapfiles/place_api/icons/generic_business-71.png"},{"localName":"Villisca Good Samaritan Center","placeId":"ChIJUz5gRQdM64cR2uACAgJUuVw","typesFilter":"[\"health\"|\"point_of_interest\"|\"establishment\"]","location":{"lng":-94.9823612,"lat":40.934318},"id":"b9d53d2a9bbe134adb58718f8ff6152c927ef952","iconUrl":"https://maps.gstatic.com/mapfiles/place_api/icons/generic_business-71.png"},{"localName":"Eickemeyer Refrigeration","placeId":"ChIJ1TSmQQs164cR24w1hE6H6Cs","typesFilter":"[\"general_contractor\"|\"point_of_interest\"|\"establishment\"]","location":{"lng":-95.0223544,"lat":40.8283116},"openingHours":{"open_now":true,"weekday_text":[]},"id":"b71cee5f3fa8663a2d0b2f22d357c5a0054f519f","iconUrl":"https://maps.gstatic.com/mapfiles/place_api/icons/generic_business-71.png"},{"localName":"BNSF Railway Co","placeId":"ChIJxfxFSP5L64cRpZUh4x2IeyE","typesFilter":"[\"point_of_interest\"|\"establishment\"]","location":{"lng":-94.9766416,"lat":40.9296034},"id":"b312ea459ba6b11605cb51376a06d9ad7cfcc6c7","iconUrl":"https://maps.gstatic.com/mapfiles/place_api/icons/generic_business-71.png"},{"localName":"Villisca City Community Building","placeId":"ChIJycXH2v9L64cR1z5zPfpK9CQ","typesFilter":"[\"local_government_office\"|\"point_of_interest\"|\"establishment\"]","location":{"lng":-94.97719579999999,"lat":40.9296848},"id":"e6075e175437eef86df6ca5a3ef78f57a59b3a00","iconUrl":"https://maps.gstatic.com/mapfiles/place_api/icons/civic_building-71.png"},{"localName":"United Farmers Mercntl Co-Op","placeId":"ChIJi-f7I_pL64cRz8W_z7goF6M","typesFilter":"[\"food\"|\"store\"|\"point_of_interest\"|\"establishment\"]","location":{"lng":-94.9854608,"lat":40.9265067},"id":"3967292d61f1e967b16985e80e47ae79ccf9ad79","iconUrl":"https://maps.gstatic.com/mapfiles/place_api/icons/generic_business-71.png"},{"localName":"Villisca Armory","placeId":"ChIJCz0GglVJ64cRZMCBaWnWSB4","typesFilter":"[\"store\"|\"point_of_interest\"|\"establishment\"]","location":{"lng":-94.97616339999999,"lat":40.9296672},"id":"b17dd5c521b4db04b6338b088c13106ee54481e3","iconUrl":"https://maps.gstatic.com/mapfiles/place_api/icons/shopping-71.png"},{"localName":"Villisca Medical Clinic","placeId":"ChIJ1TsjI_5L64cR8y07N0Z2bCo","typesFilter":"[\"doctor\"|\"health\"|\"point_of_interest\"|\"establishment\"]","location":{"lng":-94.9772363,"lat":40.9286506},"id":"056a5a4d09840edf625dbeba9973690fe90332ba","iconUrl":"https://maps.gstatic.com/mapfiles/place_api/icons/generic_business-71.png"},{"localName":"Nodaway","placeId":"ChIJxReNOVVP64cRkARGV9FJAl4","typesFilter":"[\"locality\"|\"political\"]","location":{"lng":-94.8935601,"lat":40.9377263},"id":"dd4c7aca7f9da345621df4e9af20e558d75d8285","iconUrl":"https://maps.gstatic.com/mapfiles/place_api/icons/geocode-71.png"}],[{"localName":"Lone Tree","placeId":"ChIJn0K-kT0R5IcRjCIo_dCS8M4","typesFilter":"[\"locality\"|\"political\"]","location":{"lng":-91.425994,"lat":41.48807749999999},"id":"129ec47760542091df129a602c03967abff908af","iconUrl":"https://maps.gstatic.com/mapfiles/place_api/icons/geocode-71.png"},{"localName":"Nichols Post Office","placeId":"ChIJ1zvtfecO5IcR2_ZAteLINE8","typesFilter":"[\"post_office\"|\"finance\"|\"point_of_interest\"|\"establishment\"]","location":{"lng":-91.3076576,"lat":41.4805796},"openingHours":{"open_now":false,"weekday_text":[]},"id":"bb7f7150ed05553a9adc890674b4757ea7bade4a","iconUrl":"https://maps.gstatic.com/mapfiles/place_api/icons/post_office-71.png"},{"localName":"Conesville Post Office","placeId":"ChIJFd-QDsME5IcR4HXmQrYMXS0","typesFilter":"[\"post_office\"|\"finance\"|\"point_of_interest\"|\"establishment\"]","location":{"lng":-91.3498791,"lat":41.3819687},"openingHours":{"open_now":false,"weekday_text":[]},"id":"a0b9c32d90ee3abefe8f39d25bafe5d0a075fa92","iconUrl":"https://maps.gstatic.com/mapfiles/place_api/icons/post_office-71.png"},{"localName":"Iowa Parrot Rescue","placeId":"ChIJ-7HOe-IG5IcRkEqQiRUwUUc","typesFilter":"[\"point_of_interest\"|\"establishment\"]","location":{"lng":-91.2526649,"lat":41.3819131},"id":"cac60a42b62bb05aee2cc4578e34a73691d94c46","iconUrl":"https://maps.gstatic.com/mapfiles/place_api/icons/generic_business-71.png"},{"localName":"Christian Church","placeId":"ChIJ92YC3cIO5IcR5cOxrcvj2bg","typesFilter":"[\"church\"|\"place_of_worship\"|\"point_of_interest\"|\"establishment\"]","location":{"lng":-91.3076576,"lat":41.4811351},"id":"ff1068aa2c3a3fb8de8ac59373731af7011b0c8c","iconUrl":"https://maps.gstatic.com/mapfiles/place_api/icons/worship_general-71.png"},{"localName":"D & J Tree Farm","placeId":"ChIJ18K6PUAP5IcRODWMK_C3RAU","typesFilter":"[\"food\"|\"point_of_interest\"|\"establishment\"]","location":{"lng":-91.307574,"lat":41.452503},"id":"677e3feb4c1120bd271cd2a64d4ba13b950ccbd6","iconUrl":"https://maps.gstatic.com/mapfiles/place_api/icons/generic_business-71.png"},{"localName":"Chown Appliance","placeId":"ChIJ6cDGfucO5IcRGkO6SL-3Voo","typesFilter":"[\"plumber\"|\"general_contractor\"|\"electrician\"|\"furniture_store\"|\"home_goods_store\"|\"store\"|\"point_of_interest\"|\"establishment\"]","location":{"lng":-91.3085993,"lat":41.4813896},"openingHours":{"open_now":false,"weekday_text":[]},"id":"3b07047360231aca8e1279429b92490f9ad7b135","iconUrl":"https://maps.gstatic.com/mapfiles/place_api/icons/shopping-71.png"},{"localName":"Bills Auto Salvage","placeId":"ChIJYWaiX7gE5IcRMvYH-hDFcDY","typesFilter":"[\"car_repair\"|\"store\"|\"point_of_interest\"|\"establishment\"]","location":{"lng":-91.3509875,"lat":41.3722556},"openingHours":{"open_now":false,"weekday_text":[]},"id":"fd708b48642ffbb4986e0d647937684571329bba","iconUrl":"https://maps.gstatic.com/mapfiles/place_api/icons/generic_business-71.png"},{"localName":"Kalona Kountry Katering","placeId":"ChIJ5fO_xM0E5IcRzu0mxeO-NEM","typesFilter":"[\"meal_delivery\"|\"food\"|\"store\"|\"point_of_interest\"|\"establishment\"]","location":{"lng":-91.362067,"lat":41.38150399999999},"id":"00e9e5e38b80166beee2e8945d14c535b48e0c71","iconUrl":"https://maps.gstatic.com/mapfiles/place_api/icons/generic_business-71.png"},{"localName":"Black Crow Forge Inc","placeId":"ChIJu2wp7rEF5IcRokO8CecGvlE","typesFilter":"[\"point_of_interest\"|\"establishment\"]","location":{"lng":-91.317228,"lat":41.39933200000001},"id":"f3e6bdb89bd5906028a6d2d86688fe0b9781a9f2","iconUrl":"https://maps.gstatic.com/mapfiles/place_api/icons/generic_business-71.png"},{"localName":"Casey's General Store","placeId":"ChIJ9bLWdtwO5IcRfdfkkwo4qU8","typesFilter":"[\"convenience_store\"|\"gas_station\"|\"meal_takeaway\"|\"restaurant\"|\"food\"|\"store\"|\"point_of_interest\"|\"establishment\"]","location":{"lng":-91.30406950000001,"lat":41.480565},"openingHours":{"open_now":false,"weekday_text":[]},"id":"b3536101b56133e8a4e3fe783629c41accd05ca7","iconUrl":"https://maps.gstatic.com/mapfiles/place_api/icons/shopping-71.png"},{"localName":"Nichols United Methodist Church","placeId":"ChIJL5Sg9N0O5IcRIQD7MaHl4oY","typesFilter":"[\"church\"|\"place_of_worship\"|\"point_of_interest\"|\"establishment\"]","location":{"lng":-91.308071,"lat":41.48005399999999},"id":"765ba778d71d7c45ba5d0205067ac7fcf6ec0acc","iconUrl":"https://maps.gstatic.com/mapfiles/place_api/icons/worship_general-71.png"},{"localName":"Nature Conservancy","placeId":"ChIJe8pjZzUG5IcRYJpOgBIZ00w","typesFilter":"[\"point_of_interest\"|\"establishment\"]","location":{"lng":-91.251813,"lat":41.414858},"id":"4d3726f5901af317799fdc68834e38618eed2e99","iconUrl":"https://maps.gstatic.com/mapfiles/place_api/icons/generic_business-71.png"},{"localName":"Nichols Agriservice LLC","placeId":"ChIJrfXr_ecO5IcRJ4twcXgY64k","typesFilter":"[\"store\"|\"point_of_interest\"|\"establishment\"]","location":{"lng":-91.30873,"lat":41.483802},"id":"9731754d882ca74a491dcb35902d44b21b921bf7","iconUrl":"https://maps.gstatic.com/mapfiles/place_api/icons/shopping-71.png"},{"localName":"Farmers & Merchants Savings","placeId":"ChIJU5kOfN0O5IcRyAi4QPWs3g0","typesFilter":"[\"bank\"|\"atm\"|\"finance\"|\"point_of_interest\"|\"establishment\"]","location":{"lng":-91.308092,"lat":41.48173799999999},"id":"3c4a09dd3cc4a9a60d1209f7714f81727697f32c","iconUrl":"https://maps.gstatic.com/mapfiles/place_api/icons/bank_dollar-71.png"},{"localName":"US Post Office","placeId":"ChIJ1zvtfecO5IcROwRCi2gIjbQ","typesFilter":"[\"post_office\"|\"finance\"|\"point_of_interest\"|\"establishment\"]","location":{"lng":-91.3084161,"lat":41.4809746},"openingHours":{"open_now":true,"weekday_text":[]},"id":"575b42a20de64a8f65a9daccbe1424509406a330","iconUrl":"https://maps.gstatic.com/mapfiles/place_api/icons/post_office-71.png"},{"localName":"Pike Run Services","placeId":"ChIJ2Q7m7d0O5IcRHwxkN8-3Tns","typesFilter":"[\"car_repair\"|\"point_of_interest\"|\"establishment\"]","location":{"lng":-91.3076067,"lat":41.47984599999999},"openingHours":{"open_now":false,"weekday_text":[]},"id":"64516d8fc56a91035603ba214ab90e9a5ec810cf","iconUrl":"https://maps.gstatic.com/mapfiles/place_api/icons/generic_business-71.png"},{"localName":"United States Postal Service","placeId":"ChIJP9irYcEE5IcRIhhZyPUI4Us","typesFilter":"[\"post_office\"|\"finance\"|\"point_of_interest\"|\"establishment\"]","location":{"lng":-91.3504585,"lat":41.37809680000001},"openingHours":{"open_now":false,"weekday_text":[]},"id":"d4ab9d8d2ad2bc2ffc1f35250da92abbcc08d7e4","iconUrl":"https://maps.gstatic.com/mapfiles/place_api/icons/post_office-71.png"},{"localName":"Hooks Point Irrigation","placeId":"ChIJKd1iEL8E5IcRIxRNxTgSuVw","typesFilter":"[\"food\"|\"point_of_interest\"|\"establishment\"]","location":{"lng":-91.3499666,"lat":41.3714303},"id":"1f0bce57ffcffbac25c3182ab9828f48b7d0339f","iconUrl":"https://maps.gstatic.com/mapfiles/place_api/icons/generic_business-71.png"},{"localName":"Nichols","placeId":"ChIJpbXO890O5IcRk4ZfB52ErfI","typesFilter":"[\"locality\"|\"political\"]","location":{"lng":-91.3076576,"lat":41.4811351},"id":"a6767f39f47560e99386347a983bf5d983a9aa1b","iconUrl":"https://maps.gstatic.com/mapfiles/place_api/icons/geocode-71.png"}],[{"localName":"Chicago","placeId":"ChIJ7cv00DwsDogRAMDACa2m4K8","typesFilter":"[\"locality\"|\"political\"]","location":{"lng":-87.6297982,"lat":41.8781136},"id":"53eeb015d61056c54245a909c79862532fc953ad","iconUrl":"https://maps.gstatic.com/mapfiles/place_api/icons/geocode-71.png"},{"localName":"Central Loop Hotel","placeId":"ChIJS9DQYLwsDogRmRGu2xzlF9U","typesFilter":"[\"lodging\"|\"point_of_interest\"|\"establishment\"]","location":{"lng":-87.6310146,"lat":41.879196},"openingHours":{"open_now":true,"weekday_text":[]},"id":"671e9c90dc35bceb11f22943adc4d9604cd1fec2","iconUrl":"https://maps.gstatic.com/mapfiles/place_api/icons/lodging-71.png"},{"localName":"JW Marriott Chicago","placeId":"ChIJESf9FrwsDogRg9RZOPtiZp8","typesFilter":"[\"lodging\"|\"point_of_interest\"|\"establishment\"]","location":{"lng":-87.6331221,"lat":41.8790606},"openingHours":{"open_now":true,"weekday_text":[]},"id":"4ba9e91af645574cb421e518e30d68b77515d4fa","iconUrl":"https://maps.gstatic.com/mapfiles/place_api/icons/lodging-71.png"},{"localName":"Hampton Inn Majestic Chicago Theatre District","placeId":"ChIJIQttU7ssDogRMdqIqwEDvkc","typesFilter":"[\"lodging\"|\"point_of_interest\"|\"establishment\"]","location":{"lng":-87.62862799999999,"lat":41.880824},"openingHours":{"open_now":true,"weekday_text":[]},"id":"8dd2ffd8491763984274b198b1ae2a89f768d197","iconUrl":"https://maps.gstatic.com/mapfiles/place_api/icons/lodging-71.png"},{"localName":"Hotel Blake, An Ascend Hotel Collection Member","placeId":"ChIJZ8GU4ZcsDogRIlR5GodzDrg","typesFilter":"[\"lodging\"|\"point_of_interest\"|\"establishment\"]","location":{"lng":-87.629322,"lat":41.875103},"openingHours":{"open_now":true,"weekday_text":[]},"id":"5ecd83673ec15c42f150ecd24a9f76969456caeb","iconUrl":"https://maps.gstatic.com/mapfiles/place_api/icons/lodging-71.png"},{"localName":"W Chicago - City Center","placeId":"ChIJYYPnG7wsDogR8KApuOJNQw4","typesFilter":"[\"lodging\"|\"point_of_interest\"|\"establishment\"]","location":{"lng":-87.633225,"lat":41.879683},"openingHours":{"open_now":true,"weekday_text":[]},"id":"2c0196238e8d233ae1c3c455f0fc1bf6c3758afe","iconUrl":"https://maps.gstatic.com/mapfiles/place_api/icons/lodging-71.png"},{"localName":"The Buckingham Club","placeId":"ChIJK3Ymib0sDogR1dZtqCGG5HQ","typesFilter":"[\"lodging\"|\"point_of_interest\"|\"establishment\"]","location":{"lng":-87.6321717,"lat":41.8755986},"id":"a90534d37384d2982430056db4bc75ff53cb2e97","iconUrl":"https://maps.gstatic.com/mapfiles/place_api/icons/lodging-71.png"},{"localName":"HI Chicago Hostel","placeId":"ChIJeV1VhKIsDogRIl9F2EXvlsE","typesFilter":"[\"lodging\"|\"point_of_interest\"|\"establishment\"]","location":{"lng":-87.626499,"lat":41.875894},"openingHours":{"open_now":true,"weekday_text":[]},"id":"f70b62c9029fa64847b5fbf0c2e075cd52a6c1ee","iconUrl":"https://maps.gstatic.com/mapfiles/place_api/icons/lodging-71.png"},{"localName":"Silversmith Hotel","placeId":"ChIJOdtM9KQsDogRs5DunDaE3bc","typesFilter":"[\"lodging\"|\"point_of_interest\"|\"establishment\"]","location":{"lng":-87.6266527,"lat":41.8816478},"openingHours":{"open_now":true,"weekday_text":[]},"id":"427cd82656b68ca06687249bc50ee43f17a98b91","iconUrl":"https://maps.gstatic.com/mapfiles/place_api/icons/lodging-71.png"},{"localName":"Kimpton Burnham Hotel","placeId":"ChIJ1dYmKaUsDogRHr-25sL2hAQ","typesFilter":"[\"lodging\"|\"point_of_interest\"|\"establishment\"]","location":{"lng":-87.62824719999999,"lat":41.8830146},"openingHours":{"open_now":true,"weekday_text":[]},"id":"fd28bc7b8accbaec3a2a56991f1c3b5b7951c0c8","iconUrl":"https://maps.gstatic.com/mapfiles/place_api/icons/lodging-71.png"},{"localName":"Travelodge Hotel Downtown Chicago","placeId":"ChIJua_pjZgsDogR_RPj0hIZHhA","typesFilter":"[\"lodging\"|\"point_of_interest\"|\"establishment\"]","location":{"lng":-87.62535000000001,"lat":41.87427},"openingHours":{"open_now":true,"weekday_text":[]},"id":"223b94d45d6780fca30d02ab5dd31eca4bedfca7","iconUrl":"https://maps.gstatic.com/mapfiles/place_api/icons/lodging-71.png"},{"localName":"La Quinta Inn & Suites Chicago Downtown","placeId":"ChIJYyVhF7ksDogRV4XlQid6GsE","typesFilter":"[\"lodging\"|\"point_of_interest\"|\"establishment\"]","location":{"lng":-87.6350909,"lat":41.8815994},"openingHours":{"open_now":true,"weekday_text":[]},"id":"ca5a25484a1865e44ef2cea8eaa52a8f64984d5e","iconUrl":"https://maps.gstatic.com/mapfiles/place_api/icons/lodging-71.png"},{"localName":"Renaissance Blackstone Chicago Hotel","placeId":"ChIJp4qG25gsDogR9zuhTZqa2b0","typesFilter":"[\"lodging\"|\"point_of_interest\"|\"establishment\"]","location":{"lng":-87.62456680000001,"lat":41.8732508},"openingHours":{"open_now":true,"weekday_text":[]},"id":"c36e6793f47f8b516ac2cabdc66d76c4ade7961b","iconUrl":"https://maps.gstatic.com/mapfiles/place_api/icons/lodging-71.png"},{"localName":"Kimpton Hotel Allegro","placeId":"ChIJqWzZ9bksDogRMhdu6qnb4cg","typesFilter":"[\"lodging\"|\"point_of_interest\"|\"establishment\"]","location":{"lng":-87.633355,"lat":41.8843279},"openingHours":{"open_now":true,"weekday_text":[]},"id":"af9cfc6ef381ff5439a28552596fd25e228822d6","iconUrl":"https://maps.gstatic.com/mapfiles/place_api/icons/lodging-71.png"},{"localName":"Hilton Chicago","placeId":"ChIJL3osJJksDogRodsJu9TjTQA","typesFilter":"[\"lodging\"|\"point_of_interest\"|\"establishment\"]","location":{"lng":-87.6248502,"lat":41.8725329},"openingHours":{"open_now":true,"weekday_text":[]},"id":"ec6a6863bb47165457b69db3e53f2546873c93a9","iconUrl":"https://maps.gstatic.com/mapfiles/place_api/icons/lodging-71.png"},{"localName":"theWit Chicago - a DoubleTree by Hilton Hotel","placeId":"ChIJH7aA-q8sDogREx0UJ9b1ORo","typesFilter":"[\"lodging\"|\"point_of_interest\"|\"establishment\"]","location":{"lng":-87.6276182,"lat":41.8860489},"openingHours":{"open_now":true,"weekday_text":[]},"id":"93d22fe2535f7f1bc65ade8828a8829e6bde10b2","iconUrl":"https://maps.gstatic.com/mapfiles/place_api/icons/lodging-71.png"},{"localName":"Holiday Inn Hotel & Suites Chicago-Downtown","placeId":"ChIJ34L_kuosDogRODW49JEHGaY","typesFilter":"[\"lodging\"|\"point_of_interest\"|\"establishment\"]","location":{"lng":-87.63997409999999,"lat":41.874557},"id":"d446c8c806ad87a6b00aca793c008cc89a774b85","iconUrl":"https://maps.gstatic.com/mapfiles/place_api/icons/lodging-71.png"},{"localName":"Renaissance Chicago Downtown Hotel","placeId":"ChIJeXUiILAsDogRFNdo6Iq27oo","typesFilter":"[\"lodging\"|\"point_of_interest\"|\"establishment\"]","location":{"lng":-87.6281621,"lat":41.8863616},"openingHours":{"open_now":true,"weekday_text":[]},"id":"f9467b37102a446b76d8d5f550e0412e53ab0a47","iconUrl":"https://maps.gstatic.com/mapfiles/place_api/icons/lodging-71.png"},{"localName":"Kimpton Hotel Monaco Chicago","placeId":"ChIJcYNbda8sDogR-LpwASKjn2M","typesFilter":"[\"lodging\"|\"point_of_interest\"|\"establishment\"]","location":{"lng":-87.62601699999999,"lat":41.88642000000001},"openingHours":{"open_now":true,"weekday_text":[]},"id":"7fef49f3a35d6fa9e19e42708cadd78f39e1d825","iconUrl":"https://maps.gstatic.com/mapfiles/place_api/icons/lodging-71.png"},{"localName":"South Side","placeId":"ChIJz-4igKcvDogR7fyv2_ne1vA","typesFilter":"[\"neighborhood\"|\"political\"]","location":{"lng":-87.658113,"lat":41.77665409999999},"id":"31b9a844d466cca6743a6067e9760737c2836d03","iconUrl":"https://maps.gstatic.com/mapfiles/place_api/icons/geocode-71.png"}]],"Source":{"lng":-118.2436849,"lat":34.0522342,"long_name":"Los Angeles; California","place_id":"ChIJE9on3F3HwoAR9AhGJW_fL-I"}},{"Destination":{"lng":-95.3698028,"lat":29.7604267,"long_name":"Houston; Texas","place_id":"ChIJAYWNSLS4QIYROwVl894CDco"},"Stations":[[{"localName":"Los Angeles","placeId":"ChIJE9on3F3HwoAR9AhGJW_fL-I","typesFilter":"[\"locality\"|\"political\"]","location":{"lng":-118.2436849,"lat":34.0522342},"id":"7f7b7d8118ae8db8ed3f541159ac928c484d12ad","iconUrl":"https://maps.gstatic.com/mapfiles/place_api/icons/geocode-71.png"},{"localName":"Los Angeles City Hall","placeId":"ChIJ8U1fOU_GwoAR2t6y9AjKEKI","typesFilter":"[\"city_hall\"|\"premise\"|\"local_government_office\"|\"point_of_interest\"|\"establishment\"]","location":{"lng":-118.2428145,"lat":34.0537126},"id":"7f75c7158a6b7ceac9a8e54d1a28bacf6575a080","iconUrl":"https://maps.gstatic.com/mapfiles/place_api/icons/geocode-71.png"},{"localName":"Kawada Hotel","placeId":"ChIJk4UcFkzGwoARXX6vn9WOP1Q","typesFilter":"[\"lodging\"|\"point_of_interest\"|\"establishment\"]","location":{"lng":-118.2477057,"lat":34.0527171},"id":"a17b93ea9f4305523e93c90998efd9bf6e93d0c8","iconUrl":"https://maps.gstatic.com/mapfiles/place_api/icons/lodging-71.png"},{"localName":"Miyako Hotel Los Angeles","placeId":"ChIJN4KVwkfGwoARd235b3GLiYo","typesFilter":"[\"lodging\"|\"point_of_interest\"|\"establishment\"]","location":{"lng":-118.2402369,"lat":34.0496734},"id":"92ffe126a752d35a00f82e155d8b8edf9769a6ab","iconUrl":"https://maps.gstatic.com/mapfiles/place_api/icons/lodging-71.png"},{"localName":"Metro Plaza Hotel","placeId":"ChIJ2YN22kTGwoARshYCMmIIuQM","typesFilter":"[\"lodging\"|\"point_of_interest\"|\"establishment\"]","location":{"lng":-118.2376156,"lat":34.0588338},"id":"641731f7fe4d39901159452ed057b0d6e5e4a867","iconUrl":"https://maps.gstatic.com/mapfiles/place_api/icons/lodging-71.png"},{"localName":"Hilton Checkers Los Angeles","placeId":"ChIJU9oTm7THwoARF9dZF0pdn0U","typesFilter":"[\"lodging\"|\"restaurant\"|\"food\"|\"point_of_interest\"|\"establishment\"]","location":{"lng":-118.255,"lat":34.049626},"openingHours":{"open_now":true,"weekday_text":[]},"id":"a6002da196e36f74c4b4d3d2e50838973f9a9cfe","iconUrl":"https://maps.gstatic.com/mapfiles/place_api/icons/lodging-71.png"},{"localName":"Stay on Main Hotel","placeId":"ChIJQy-6bDXGwoARZln-R4MPoGQ","typesFilter":"[\"lodging\"|\"point_of_interest\"|\"establishment\"]","location":{"lng":-118.2507798,"lat":34.0442774},"id":"8e7a1b9dc43f5580a89669961defd25d7a67b263","iconUrl":"https://maps.gstatic.com/mapfiles/place_api/icons/lodging-71.png"},{"localName":"The L.A. Hotel Downtown","placeId":"ChIJ8wFsf63HwoARuDYVgplSZ9o","typesFilter":"[\"lodging\"|\"point_of_interest\"|\"establishment\"]","location":{"lng":-118.2554539,"lat":34.0550246},"openingHours":{"open_now":true,"weekday_text":[]},"id":"1f2377c0b75bb4122fd8eb31d565b3e891aa724e","iconUrl":"https://maps.gstatic.com/mapfiles/place_api/icons/lodging-71.png"},{"localName":"The Westin Bonaventure Hotel & Suites, Los Angeles","placeId":"ChIJ_X3CRLLHwoARRT04UFlchVE","typesFilter":"[\"lodging\"|\"point_of_interest\"|\"establishment\"]","location":{"lng":-118.255893,"lat":34.052784},"openingHours":{"open_now":true,"weekday_text":[]},"id":"6a13d5b0f8e7bf65e2e914291b13824e91c9f902","iconUrl":"https://maps.gstatic.com/mapfiles/place_api/icons/lodging-71.png"},{"localName":"The Los Angeles Athletic Club","placeId":"ChIJ-_RdD7XHwoARN0-Zc_fk4ZA","typesFilter":"[\"lodging\"|\"point_of_interest\"|\"establishment\"]","location":{"lng":-118.2550311,"lat":34.0465967},"id":"31ca02766c4c50704857ec437055af9b02093f06","iconUrl":"https://maps.gstatic.com/mapfiles/place_api/icons/lodging-71.png"},{"localName":"The Standard Downtown LA","placeId":"ChIJ71dGk7PHwoARHWr_QGbZIGU","typesFilter":"[\"lodging\"|\"restaurant\"|\"food\"|\"point_of_interest\"|\"establishment\"]","location":{"lng":-118.2569631,"lat":34.0501654},"id":"732a4100780e3d0cbc0242119ac7cd4683bd2232","iconUrl":"https://maps.gstatic.com/mapfiles/place_api/icons/lodging-71.png"},{"localName":"Best Western Plus Dragon Gate Inn","placeId":"ChIJHa52O1rGwoARer87_e2fc1M","typesFilter":"[\"lodging\"|\"point_of_interest\"|\"establishment\"]","location":{"lng":-118.238908,"lat":34.0631792},"openingHours":{"open_now":true,"weekday_text":[]},"id":"21641302d12987258eda8eea2e0e259c15ea6ec9","iconUrl":"https://maps.gstatic.com/mapfiles/place_api/icons/lodging-71.png"},{"localName":"Sheraton Los Angeles Downtown Hotel","placeId":"ChIJmRr_HrTHwoARjigvltPYgzo","typesFilter":"[\"lodging\"|\"point_of_interest\"|\"establishment\"]","location":{"lng":-118.258374,"lat":34.047858},"openingHours":{"open_now":true,"weekday_text":[]},"id":"9315b38925bc468c40f76500b94350528547c544","iconUrl":"https://maps.gstatic.com/mapfiles/place_api/icons/lodging-71.png"},{"localName":"The Milner Hotel Downtown Los Angeles","placeId":"ChIJ55_V6bbHwoARijuc6LIE0X8","typesFilter":"[\"lodging\"|\"point_of_interest\"|\"establishment\"]","location":{"lng":-118.260768,"lat":34.047144},"id":"982c028abac06d376497f4d905a2cf86aa77f265","iconUrl":"https://maps.gstatic.com/mapfiles/place_api/icons/lodging-71.png"},{"localName":"The Royal Pagoda Motel","placeId":"ChIJZ_AkO1nGwoARNy378Aycqnw","typesFilter":"[\"lodging\"|\"point_of_interest\"|\"establishment\"]","location":{"lng":-118.236335,"lat":34.066712},"id":"58721f91d742d0035aba4207de15a1c67087696d","iconUrl":"https://maps.gstatic.com/mapfiles/place_api/icons/lodging-71.png"},{"localName":"Knights Inn Los Angeles Central/Conventions Center Area","placeId":"ChIJy0JcEwDHwoARFYis_tnpviw","typesFilter":"[\"lodging\"|\"point_of_interest\"|\"establishment\"]","location":{"lng":-118.253828,"lat":34.0661834},"openingHours":{"open_now":true,"weekday_text":[]},"id":"b562d69a1a24a38169c7f725cafba2127263d5a6","iconUrl":"https://maps.gstatic.com/mapfiles/place_api/icons/lodging-71.png"},{"localName":"Americas Best Value Inn","placeId":"ChIJkzUHorrHwoAR0k1roUPEjvM","typesFilter":"[\"lodging\"|\"point_of_interest\"|\"establishment\"]","location":{"lng":-118.26468,"lat":34.0514703},"openingHours":{"open_now":true,"weekday_text":[]},"id":"b73c1d94b4e126a8838839de7aeae607a861ad6f","iconUrl":"https://maps.gstatic.com/mapfiles/place_api/icons/lodging-71.png"},{"localName":"City Center Hotel","placeId":"ChIJBRsno7rHwoARfpG-chZoMxM","typesFilter":"[\"lodging\"|\"point_of_interest\"|\"establishment\"]","location":{"lng":-118.2650043,"lat":34.051523},"id":"7f6514173826a109a82862519df691909daa91e2","iconUrl":"https://maps.gstatic.com/mapfiles/place_api/icons/lodging-71.png"},{"localName":"Hotel Figueroa","placeId":"ChIJzcQQfbfHwoAREpay4PPzicU","typesFilter":"[\"lodging\"|\"point_of_interest\"|\"establishment\"]","location":{"lng":-118.2640486,"lat":34.0455317},"openingHours":{"open_now":true,"weekday_text":[]},"id":"0a9302b82c33f27f2448edd68d3a18f90d473e27","iconUrl":"https://maps.gstatic.com/mapfiles/place_api/icons/lodging-71.png"},{"localName":"Glendale","placeId":"ChIJqYPwyDLAwoARpibJ_p6hP-U","typesFilter":"[\"locality\"|\"political\"]","location":{"lng":-118.255075,"lat":34.1425078},"id":"01b238406f7bd5ce1a195b0b80f227b6a8a78797","iconUrl":"https://maps.gstatic.com/mapfiles/place_api/icons/geocode-71.png"}],[{"localName":"Hayfield","placeId":"ChIJ74K9XkGC0IARNoD7doEw7xM","typesFilter":"[\"locality\"|\"political\"]","location":{"lng":-115.634433,"lat":33.7047406},"id":"e59b0174e29b06b532ceabd1ef2e56da93017694","iconUrl":"https://maps.gstatic.com/mapfiles/place_api/icons/geocode-71.png"},{"localName":"Carey's Castle","placeId":"ChIJ7W_rJUB_2oARg6y31jLzKBY","typesFilter":"[\"point_of_interest\"|\"establishment\"]","location":{"lng":-115.6843584,"lat":33.7399583},"id":"d66bc2223fec9df21f31174cfe8997e2bbaa22fc","iconUrl":"https://maps.gstatic.com/mapfiles/place_api/icons/generic_business-71.png"},{"localName":"Hayfield Pump Lift","placeId":"ChIJJ9Mm50WC0IAR0tm_-e7Amc0","typesFilter":"[\"point_of_interest\"|\"establishment\"]","location":{"lng":-115.6286218,"lat":33.7053656},"id":"0db58f4af99113277024e058e386e50b904878ea","iconUrl":"https://maps.gstatic.com/mapfiles/place_api/icons/generic_business-71.png"},{"localName":"Julian Hinds Substation","placeId":"ChIJsUA6Z0-C0IARI3d_M4jp5LM","typesFilter":"[\"point_of_interest\"|\"establishment\"]","location":{"lng":-115.6268898,"lat":33.7047241},"id":"163d5cb130492282d6e5f6ccdb49b3a31a557933","iconUrl":"https://maps.gstatic.com/mapfiles/place_api/icons/civic_building-71.png"},{"localName":"Julian Hinds Pump Plant Village","placeId":"ChIJTX6seEGC0IARuD-L_51pYZg","typesFilter":"[\"point_of_interest\"|\"establishment\"]","location":{"lng":-115.6361689,"lat":33.7044182},"id":"77aa97812b71d3445a56efd090eba8cd37fe3a0b","iconUrl":"https://maps.gstatic.com/mapfiles/place_api/icons/generic_business-71.png"}],[{"localName":"Tonopah","placeId":"ChIJs6QFFF681IARNNJOCIAuXbQ","typesFilter":"[\"locality\"|\"political\"]","location":{"lng":-112.9370802,"lat":33.4934778},"id":"85eef016649ded26c0018ebdce0443c10de5b683","iconUrl":"https://maps.gstatic.com/mapfiles/place_api/icons/geocode-71.png"},{"localName":"Subway","placeId":"ChIJ7c1rFve81IARq-idWroIw8Q","typesFilter":"[\"restaurant\"|\"food\"|\"point_of_interest\"|\"establishment\"]","location":{"lng":-112.9378553,"lat":33.4941597},"openingHours":{"open_now":false,"weekday_text":[]},"id":"4609bd1f6337cbbc1d2ea4d47f903cb5e3174a2a","iconUrl":"https://maps.gstatic.com/mapfiles/place_api/icons/restaurant-71.png"},{"localName":"Saddle Mountain RV Park Inc","placeId":"ChIJrx8jgqe91IARTA6CWhSERgk","typesFilter":"[\"rv_park\"|\"campground\"|\"park\"|\"lodging\"|\"point_of_interest\"|\"establishment\"]","location":{"lng":-112.9325844,"lat":33.4875956},"id":"2bc4465c10677926fde6f321cdb9dd7290c87fc8","iconUrl":"https://maps.gstatic.com/mapfiles/place_api/icons/lodging-71.png"},{"localName":"US Post Office","placeId":"ChIJt2w3Hfa81IARPzyUkEqQszY","typesFilter":"[\"post_office\"|\"finance\"|\"point_of_interest\"|\"establishment\"]","location":{"lng":-112.9365208,"lat":33.49213350000001},"openingHours":{"open_now":false,"weekday_text":[]},"id":"5447ede3449490987247c69da7c16f93a8b4c6b6","iconUrl":"https://maps.gstatic.com/mapfiles/place_api/icons/post_office-71.png"},{"localName":"Minit Mart","placeId":"ChIJ7c1rFve81IARqPKKxvck25E","typesFilter":"[\"convenience_store\"|\"gas_station\"|\"food\"|\"store\"|\"point_of_interest\"|\"establishment\"]","location":{"lng":-112.9378251,"lat":33.49406699999999},"id":"975094a3cd17bb558d907d4bd3ee4dcf1cdb2c13","iconUrl":"https://maps.gstatic.com/mapfiles/place_api/icons/shopping-71.png"},{"localName":"Akin Transportation Inc","placeId":"ChIJ4XffO_a81IARe13hx7MZG_8","typesFilter":"[\"point_of_interest\"|\"establishment\"]","location":{"lng":-112.9374856,"lat":33.49330270000001},"id":"1d611b34b17a21abee2a85dbb2d342f5b3598efc","iconUrl":"https://maps.gstatic.com/mapfiles/place_api/icons/generic_business-71.png"},{"localName":"Mobil","placeId":"ChIJJ9WC8_a81IARxkuEXW_A71g","typesFilter":"[\"gas_station\"|\"point_of_interest\"|\"establishment\"]","location":{"lng":-112.937355,"lat":33.494965},"id":"aa2b5f96e0cb926f3ab24d1e96b7252b5fdaf8dc","iconUrl":"https://maps.gstatic.com/mapfiles/place_api/icons/gas_station-71.png"},{"localName":"Tire Shop","placeId":"ChIJ4XffO_a81IARk3pKjF9tM2U","typesFilter":"[\"car_repair\"|\"store\"|\"point_of_interest\"|\"establishment\"]","location":{"lng":-112.9375902,"lat":33.493267},"openingHours":{"open_now":false,"weekday_text":[]},"id":"c566a91a6f3fcaa8255b80644ac87653dbefe7b9","iconUrl":"https://maps.gstatic.com/mapfiles/place_api/icons/shopping-71.png"},{"localName":"Saddle Vista Ranch","placeId":"ChIJIWr2csq91IARmEMa2-Zsi8c","typesFilter":"[\"food\"|\"store\"|\"point_of_interest\"|\"establishment\"]","location":{"lng":-112.95783,"lat":33.466174},"openingHours":{"open_now":false,"weekday_text":[]},"id":"34bbdd8df7a5ab7b9f18bc6afb84b20b3d48bf3a","iconUrl":"https://maps.gstatic.com/mapfiles/place_api/icons/shopping-71.png"},{"localName":"B & B Express","placeId":"ChIJXcD18_a81IARw_q_L6sJy2c","typesFilter":"[\"convenience_store\"|\"gas_station\"|\"food\"|\"car_repair\"|\"store\"|\"point_of_interest\"|\"establishment\"]","location":{"lng":-112.9375069,"lat":33.4947491},"id":"5026b7a5d03fe36eb7d3d3501d49d4f378a4db0f","iconUrl":"https://maps.gstatic.com/mapfiles/place_api/icons/shopping-71.png"},{"localName":"Tonopah Family Restaurant","placeId":"ChIJ4XffO_a81IARqIgiwrldK08","typesFilter":"[\"restaurant\"|\"food\"|\"point_of_interest\"|\"establishment\"]","location":{"lng":-112.9375959,"lat":33.4933391},"id":"cc7d39e88b8a99ad5ced7480efee6d8dd10aadb2","iconUrl":"https://maps.gstatic.com/mapfiles/place_api/icons/restaurant-71.png"},{"localName":"Tonopah Health And Wellness","placeId":"ChIJmUWKava81IARqpifqXmJFlQ","typesFilter":"[\"health\"|\"store\"|\"point_of_interest\"|\"establishment\"]","location":{"lng":-112.9370802,"lat":33.4934778},"openingHours":{"open_now":true,"weekday_text":[]},"id":"accec98f2397aeb602e6be7f9aca1356efc79d6a","iconUrl":"https://maps.gstatic.com/mapfiles/place_api/icons/shopping-71.png"},{"localName":"TDS Telecom","placeId":"ChIJ______-71IARsE8OBgzFNTc","typesFilter":"[\"point_of_interest\"|\"establishment\"]","location":{"lng":-112.9370802,"lat":33.4934778},"id":"e2a20a4207df010cbdce4901bc4b257da60cac33","iconUrl":"https://maps.gstatic.com/mapfiles/place_api/icons/generic_business-71.png"},{"localName":"Tonopah Post Office","placeId":"ChIJgcVkrkW81IARa2wJDKMfAmM","typesFilter":"[\"post_office\"|\"finance\"|\"point_of_interest\"|\"establishment\"]","location":{"lng":-112.9390691,"lat":33.477817},"id":"8d8e54168fd8e740a0aa752afba468c0b5fb15d3","iconUrl":"https://maps.gstatic.com/mapfiles/place_api/icons/post_office-71.png"},{"localName":"Chevron","placeId":"ChIJAbEyffa81IARUGtvms9JcFU","typesFilter":"[\"gas_station\"|\"convenience_store\"|\"food\"|\"car_repair\"|\"store\"|\"point_of_interest\"|\"establishment\"]","location":{"lng":-112.9365258,"lat":33.4947006},"id":"ef139aeca4be9b7b5c93a19653b4c146ef924b8e","iconUrl":"https://maps.gstatic.com/mapfiles/place_api/icons/gas_station-71.png"},{"localName":"Southwest Processors Exchange Lllp","placeId":"ChIJg04rPGW71IAREJY4bXJS6oo","typesFilter":"[\"point_of_interest\"|\"establishment\"]","location":{"lng":-112.8985491,"lat":33.5087596},"openingHours":{"open_now":false,"weekday_text":[]},"id":"5d2ccdc0eb6aec23969bd9ef82e4e60cc5a910b8","iconUrl":"https://maps.gstatic.com/mapfiles/place_api/icons/generic_business-71.png"},{"localName":"ATM","placeId":"ChIJ4XffO_a81IARcz6pNIhfeoo","typesFilter":"[\"atm\"|\"finance\"|\"point_of_interest\"|\"establishment\"]","location":{"lng":-112.9374856,"lat":33.49330270000001},"id":"38c189644fa824762d6e2aa56d1cc87f33b39890","iconUrl":"https://maps.gstatic.com/mapfiles/place_api/icons/atm-71.png"},{"localName":"Wintersburg Recyclers","placeId":"ChIJ4XffO_a81IARVGiSHDEzbyk","typesFilter":"[\"point_of_interest\"|\"establishment\"]","location":{"lng":-112.9374856,"lat":33.49330270000001},"id":"2da8a6e9d64864eb8cbc116b549a0b19611e0b5f","iconUrl":"https://maps.gstatic.com/mapfiles/place_api/icons/generic_business-71.png"},{"localName":"Saguaro Hot Mineral Wells Motel","placeId":"ChIJuVkmtES81IARYAfLudMYXiw","typesFilter":"[\"lodging\"|\"point_of_interest\"|\"establishment\"]","location":{"lng":-112.9364678,"lat":33.48923019999999},"id":"f58f6bb35a5f17f61b24094514b188312954592b","iconUrl":"https://maps.gstatic.com/mapfiles/place_api/icons/lodging-71.png"},{"localName":"Horseshoe Trails","placeId":"ChIJSVTDK1m_1IAR_OiY43bjGUE","typesFilter":"[\"neighborhood\"|\"political\"]","location":{"lng":-112.8880068,"lat":33.4112982},"id":"c5e43f1e642e1cb0d936330412e4c7036b678024","iconUrl":"https://maps.gstatic.com/mapfiles/place_api/icons/geocode-71.png"}],[],[{"localName":"Faywood","placeId":"ChIJtXvez50v34YRP3sYfRdqDRk","typesFilter":"[\"locality\"|\"political\"]","location":{"lng":-107.875397,"lat":32.632229},"id":"4b7a9e386d988b005289a4d4f63de0f76a3eda40","iconUrl":"https://maps.gstatic.com/mapfiles/place_api/icons/geocode-71.png"},{"localName":"Faywood Post Office","placeId":"ChIJWyKeAXkv34YRM3ZbCCDFe0k","typesFilter":"[\"post_office\"|\"finance\"|\"point_of_interest\"|\"establishment\"]","location":{"lng":-107.8669781,"lat":32.628414},"id":"fcd090307a73d6221be311dbc482ca7d1c3f93e7","iconUrl":"https://maps.gstatic.com/mapfiles/place_api/icons/post_office-71.png"},{"localName":"San Jose","placeId":"ChIJWyKeAXkv34YRqed3zFfiiZ8","typesFilter":"[\"church\"|\"place_of_worship\"|\"point_of_interest\"|\"establishment\"]","location":{"lng":-107.8669781,"lat":32.628414},"id":"318bdb1090511ac8191c3928bb319c156e336fd2","iconUrl":"https://maps.gstatic.com/mapfiles/place_api/icons/worship_general-71.png"},{"localName":"San Jose Church","placeId":"ChIJKbChJXIv34YR6uqEqv1GUcA","typesFilter":"[\"church\"|\"place_of_worship\"|\"point_of_interest\"|\"establishment\"]","location":{"lng":-107.8767004,"lat":32.6209142},"id":"a67ec85fb8b35720776abd43f776b4f2f694c496","iconUrl":"https://maps.gstatic.com/mapfiles/place_api/icons/worship_general-71.png"},{"localName":"Beaverhead Airstrip-13NM","placeId":"ChIJ-QW7Ym0v34YRpuDeeVDUKJc","typesFilter":"[\"airport\"|\"point_of_interest\"|\"establishment\"]","location":{"lng":-107.8798506,"lat":32.61836650000001},"id":"2626a2d1535f74d5004139cb6908bbf8f1291ec1","iconUrl":"https://maps.gstatic.com/mapfiles/place_api/icons/airport-71.png"},{"localName":"Me-Own Airport-1NM0","placeId":"ChIJ-QW7Ym0v34YRuiWeBXCcclo","typesFilter":"[\"school\"|\"point_of_interest\"|\"establishment\"]","location":{"lng":-107.8798506,"lat":32.61836650000001},"id":"24acd4fa68e070638705d7b8c07f3639b87c9748","iconUrl":"https://maps.gstatic.com/mapfiles/place_api/icons/school-71.png"},{"localName":"W W Orchard (fruit stand)","placeId":"ChIJ66cjObE634YRkw0lFl_rZn8","typesFilter":"[\"food\"|\"point_of_interest\"|\"establishment\"]","location":{"lng":-107.8416487,"lat":32.6857957},"id":"9bc5c28440f039947dc5b0ad0cd6e1ddaa078ece","iconUrl":"https://maps.gstatic.com/mapfiles/place_api/icons/generic_business-71.png"}],[{"localName":"New Mexico Unit 29","placeId":"ChIJtUfO1aU24YYRaRQ9kmDZUzc","typesFilter":"[\"premise\"|\"point_of_interest\"|\"establishment\"]","location":{"lng":-105.5005483,"lat":32.2040928},"id":"2ecc8f26ed789aeefc8a43ab203ee07af5daa692","iconUrl":"https://maps.gstatic.com/mapfiles/place_api/icons/geocode-71.png"}],[{"localName":"Monahans Sandhills State Park","placeId":"ChIJa1aiCxP_-oYReY3vKI-Mt8E","typesFilter":"[\"park\"|\"point_of_interest\"|\"establishment\"]","location":{"lng":-102.8116455,"lat":31.6194032},"id":"8aabadb69fb431382933b82dc31d3545c4b5c631","iconUrl":"https://maps.gstatic.com/mapfiles/place_api/icons/generic_recreational-71.png"},{"localName":"Weststar Autoplex Chevrolet Buick GMC","placeId":"ChIJ9_Cx9_xV-oYRWodg0dU9i6o","typesFilter":"[\"car_dealer\"|\"store\"|\"point_of_interest\"|\"establishment\"]","location":{"lng":-102.8371745,"lat":31.6085719},"openingHours":{"open_now":false,"weekday_text":[]},"id":"d0ee95422e8722a425d257a0bc92073cbb13f771","iconUrl":"https://maps.gstatic.com/mapfiles/place_api/icons/shopping-71.png"},{"localName":"Willow Draw Campground","placeId":"ChIJHy0dLl3_-oYRm107ru22i3E","typesFilter":"[\"campground\"|\"park\"|\"lodging\"|\"point_of_interest\"|\"establishment\"]","location":{"lng":-102.816571,"lat":31.63674},"id":"62e00d722c889bbc5e1afd247d3ef9030cbd46a1","iconUrl":"https://maps.gstatic.com/mapfiles/place_api/icons/camping-71.png"},{"localName":"WestStar Autoplex","placeId":"ChIJBRoOT2f5-oYR60UYP0AqTtc","typesFilter":"[\"car_dealer\"|\"store\"|\"point_of_interest\"|\"establishment\"]","location":{"lng":-102.8367557,"lat":31.6087765},"openingHours":{"open_now":false,"weekday_text":[]},"id":"7097f16c26d034e79f502301f67d93e2b00010fa","iconUrl":"https://maps.gstatic.com/mapfiles/place_api/icons/shopping-71.png"}],[{"localName":"Carmel of Our Lady of Grace","placeId":"ChIJlXZZpZA9WIYRTcidTmyzoLk","typesFilter":"[\"place_of_worship\"|\"point_of_interest\"|\"establishment\"]","location":{"lng":-100.2832924,"lat":31.002885},"id":"9043b1cb4a5dbae4335082f47c92d0a1affd2b4f","iconUrl":"https://maps.gstatic.com/mapfiles/place_api/icons/generic_business-71.png"}],[{"localName":"Austin","placeId":"ChIJLwPMoJm1RIYRetVp1EtGm10","typesFilter":"[\"locality\"|\"political\"]","location":{"lng":-97.7430608,"lat":30.267153},"id":"c5153b48ff062dcbd5e6bbb77bcaa3afb7458147","iconUrl":"https://maps.gstatic.com/mapfiles/place_api/icons/geocode-71.png"},{"localName":"Staybridge Suites Austin Northwest","placeId":"ChIJKY3MvC7NRIYRfFmanru1kk8","typesFilter":"[\"lodging\"|\"point_of_interest\"|\"establishment\"]","location":{"lng":-97.77884999999999,"lat":30.44097199999999},"openingHours":{"open_now":true,"weekday_text":[]},"id":"4a82eea3b5e6e53f5c389d6b7c510cf0d3fe1290","iconUrl":"https://maps.gstatic.com/mapfiles/place_api/icons/lodging-71.png"},{"localName":"La Quinta Inn & Suites Austin NW/Lakeline Mall","placeId":"ChIJh7UpteIsW4YRbLNbjvf8MHs","typesFilter":"[\"lodging\"|\"point_of_interest\"|\"establishment\"]","location":{"lng":-97.79265769999999,"lat":30.4751637},"openingHours":{"open_now":true,"weekday_text":[]},"id":"ff81edf8f49292cccc6ebd69abc059fae5c4a414","iconUrl":"https://maps.gstatic.com/mapfiles/place_api/icons/lodging-71.png"},{"localName":"Hilton Garden Inn Austin NW/Arboretum","placeId":"ChIJsagBHfXMRIYR-YimCQPJHAM","typesFilter":"[\"lodging\"|\"point_of_interest\"|\"establishment\"]","location":{"lng":-97.7443297,"lat":30.4153399},"openingHours":{"open_now":true,"weekday_text":[]},"id":"2378d22d016fe4c5a263d5d11c00419ce0e0a24a","iconUrl":"https://maps.gstatic.com/mapfiles/place_api/icons/lodging-71.png"},{"localName":"Renaissance Austin Hotel","placeId":"ChIJL_jXUoLMRIYRdMJC6h3clUU","typesFilter":"[\"lodging\"|\"point_of_interest\"|\"establishment\"]","location":{"lng":-97.7499216,"lat":30.3919875},"openingHours":{"open_now":true,"weekday_text":[]},"id":"d7e420116019896881d86f1eaddab17e3f6fdb9a","iconUrl":"https://maps.gstatic.com/mapfiles/place_api/icons/lodging-71.png"},{"localName":"Travaasa Austin","placeId":"ChIJyw-xuCQyW4YRAYk6UTpBfEc","typesFilter":"[\"lodging\"|\"point_of_interest\"|\"establishment\"]","location":{"lng":-97.864707,"lat":30.44327200000001},"id":"8df508b7266921b1c5164d6aa8d79e269ef214fa","iconUrl":"https://maps.gstatic.com/mapfiles/place_api/icons/lodging-71.png"},{"localName":"Homewood Suites by Hilton Austin-Arboretum/NW","placeId":"ChIJSRMZt3vMRIYRmiao0Pttou0","typesFilter":"[\"lodging\"|\"point_of_interest\"|\"establishment\"]","location":{"lng":-97.73405299999999,"lat":30.398321},"openingHours":{"open_now":true,"weekday_text":[]},"id":"782fb3c1e7b7436855bbfbd6a795a16404b6aea9","iconUrl":"https://maps.gstatic.com/mapfiles/place_api/icons/lodging-71.png"},{"localName":"Hampton Inn Austin-NW/Arboretum","placeId":"ChIJl-U2w3vMRIYRsvF_qxzw6gE","typesFilter":"[\"lodging\"|\"point_of_interest\"|\"establishment\"]","location":{"lng":-97.734607,"lat":30.397388},"openingHours":{"open_now":true,"weekday_text":[]},"id":"75e0332b6099aba9a85ec68398a17cd666046786","iconUrl":"https://maps.gstatic.com/mapfiles/place_api/icons/lodging-71.png"},{"localName":"TownePlace Suites Austin Northwest/Arboretum","placeId":"ChIJhTMOX3_MRIYRLncyq_ziHoM","typesFilter":"[\"lodging\"|\"point_of_interest\"|\"establishment\"]","location":{"lng":-97.737383,"lat":30.391202},"openingHours":{"open_now":true,"weekday_text":[]},"id":"cf58a3eb24d6cadfc136ff191230584b061c6733","iconUrl":"https://maps.gstatic.com/mapfiles/place_api/icons/lodging-71.png"},{"localName":"Fairfield Inn & Suites Austin Northwest/The Domain Area","placeId":"ChIJ6x22X3DMRIYRinfF1TTs1pU","typesFilter":"[\"lodging\"|\"point_of_interest\"|\"establishment\"]","location":{"lng":-97.72902169999999,"lat":30.3998723},"id":"26aa6451dca25829d3aff7dfba1640b4e6f245f3","iconUrl":"https://maps.gstatic.com/mapfiles/place_api/icons/lodging-71.png"},{"localName":"Extended Stay America - Austin - Arboretum","placeId":"ChIJDWFHUIfLRIYR7V9nsrqR9RI","typesFilter":"[\"lodging\"|\"point_of_interest\"|\"establishment\"]","location":{"lng":-97.736369,"lat":30.390789},"openingHours":{"open_now":true,"weekday_text":[]},"id":"9849d1e715af34105f445eab4916da935d71338f","iconUrl":"https://maps.gstatic.com/mapfiles/place_api/icons/lodging-71.png"},{"localName":"Courtyard Austin Northwest/Arboretum","placeId":"ChIJ5TVgi4HLRIYRGbUkZknBBUc","typesFilter":"[\"lodging\"|\"point_of_interest\"|\"establishment\"]","location":{"lng":-97.74026909999999,"lat":30.3851074},"openingHours":{"open_now":true,"weekday_text":[]},"id":"aa5842dc8ebd66c7bb57b95d04a36ad6d5608785","iconUrl":"https://maps.gstatic.com/mapfiles/place_api/icons/lodging-71.png"},{"localName":"Residence Inn Austin Northwest/Arboretum","placeId":"ChIJd0GqJ4LLRIYRgY3yHofQmrY","typesFilter":"[\"lodging\"|\"point_of_interest\"|\"establishment\"]","location":{"lng":-97.74000799999999,"lat":30.384615},"openingHours":{"open_now":true,"weekday_text":[]},"id":"ad846a72faffa8da27dead2eb11d0f4c61a32e36","iconUrl":"https://maps.gstatic.com/mapfiles/place_api/icons/lodging-71.png"},{"localName":"Aloft Austin at The Domain","placeId":"ChIJdS6UK3LMRIYRMUgEM3UGfUU","typesFilter":"[\"lodging\"|\"point_of_interest\"|\"establishment\"]","location":{"lng":-97.723778,"lat":30.40275800000001},"openingHours":{"open_now":true,"weekday_text":[]},"id":"845b19c77ba79092dbc7bdbca04ca451ef619a43","iconUrl":"https://maps.gstatic.com/mapfiles/place_api/icons/lodging-71.png"},{"localName":"Embassy Suites by Hilton Austin Arboretum","placeId":"ChIJl_r0fIHLRIYRbXMk5Ct_Yts","typesFilter":"[\"lodging\"|\"point_of_interest\"|\"establishment\"]","location":{"lng":-97.738376,"lat":30.385164},"openingHours":{"open_now":true,"weekday_text":[]},"id":"c9871bf975465c1c2218ae228e38bb55238961d6","iconUrl":"https://maps.gstatic.com/mapfiles/place_api/icons/lodging-71.png"},{"localName":"The Westin Austin at The Domain","placeId":"ChIJaWc123PMRIYRlDtdBWeNyek","typesFilter":"[\"lodging\"|\"point_of_interest\"|\"establishment\"]","location":{"lng":-97.72445499999999,"lat":30.399066},"openingHours":{"open_now":true,"weekday_text":[]},"id":"475a11797316401893a3dc8ed358eb013cfc60f8","iconUrl":"https://maps.gstatic.com/mapfiles/place_api/icons/lodging-71.png"},{"localName":"La Quinta Inn & Suites Austin Mopac North at the Domain","placeId":"ChIJ52oWMRPMRIYRt1zRWhYrupw","typesFilter":"[\"lodging\"|\"point_of_interest\"|\"establishment\"]","location":{"lng":-97.7189338,"lat":30.4070045},"openingHours":{"open_now":true,"weekday_text":[]},"id":"1ad1b6b96f959c87dc1a7c0992fe057b34a89342","iconUrl":"https://maps.gstatic.com/mapfiles/place_api/icons/lodging-71.png"},{"localName":"Holiday Inn Express & Suites Austin-(Nw) Hwy 620 & 183","placeId":"ChIJ36d2Hb0yW4YRPo5pA0lVtPg","typesFilter":"[\"lodging\"|\"point_of_interest\"|\"establishment\"]","location":{"lng":-97.8040547,"lat":30.4645713},"openingHours":{"open_now":true,"weekday_text":[]},"id":"e168a63d80343bdea15ea7750ee48be843ddc7c2","iconUrl":"https://maps.gstatic.com/mapfiles/place_api/icons/lodging-71.png"},{"localName":"Candlewood Suites Austin Arboretum-Northwest","placeId":"ChIJD7lF3IDLRIYROvsCN37gvxM","typesFilter":"[\"lodging\"|\"point_of_interest\"|\"establishment\"]","location":{"lng":-97.7373842,"lat":30.3884295},"openingHours":{"open_now":true,"weekday_text":[]},"id":"a8ee7a2e5eecc5f0519eb12bfa3f89a561e025f8","iconUrl":"https://maps.gstatic.com/mapfiles/place_api/icons/lodging-71.png"},{"localName":"Cedar Park","placeId":"ChIJ1Zl9vhctW4YR_zkVv4ahPXY","typesFilter":"[\"locality\"|\"political\"]","location":{"lng":-97.8202888,"lat":30.505198},"id":"c3af8c27f66de632947c1d8d7ef7fb73b0e24f61","iconUrl":"https://maps.gstatic.com/mapfiles/place_api/icons/geocode-71.png"}],[{"localName":"Houston","placeId":"ChIJAYWNSLS4QIYROwVl894CDco","typesFilter":"[\"locality\"|\"political\"]","location":{"lng":-95.3698028,"lat":29.7604267},"id":"25faf0a7ef1056b980f3a19237cfa8e295668123","iconUrl":"https://maps.gstatic.com/mapfiles/place_api/icons/geocode-71.png"},{"localName":"Hotel ICON, Autograph Collection","placeId":"ChIJf1QRkS-_QIYR2DsRPtJiRNA","typesFilter":"[\"lodging\"|\"restaurant\"|\"food\"|\"point_of_interest\"|\"establishment\"]","location":{"lng":-95.36100599999999,"lat":29.762606},"openingHours":{"open_now":true,"weekday_text":[]},"id":"a1eee5423b86b6ccf95a7ecda7ae204a43ba8de8","iconUrl":"https://maps.gstatic.com/mapfiles/place_api/icons/lodging-71.png"},{"localName":"Magnolia Hotel Houston","placeId":"ChIJo-7iIiW_QIYRHUSQQy64FZw","typesFilter":"[\"lodging\"|\"point_of_interest\"|\"establishment\"]","location":{"lng":-95.36156369999999,"lat":29.75909919999999},"id":"4ec0cfd7c6760b550b664900646bf16ead3b6794","iconUrl":"https://maps.gstatic.com/mapfiles/place_api/icons/lodging-71.png"},{"localName":"Doubletree Hotel Houston Downtown","placeId":"ChIJofwt9zi_QIYRalHVu71H-lo","typesFilter":"[\"lodging\"|\"point_of_interest\"|\"establishment\"]","location":{"lng":-95.3711276,"lat":29.7578248},"openingHours":{"open_now":true,"weekday_text":[]},"id":"c4230dbb397a9b0e6262a516bc0c1a1d9e6a560d","iconUrl":"https://maps.gstatic.com/mapfiles/place_api/icons/lodging-71.png"},{"localName":"The Lancaster Hotel","placeId":"ChIJpXTqeDC_QIYRWTBSOg3rarM","typesFilter":"[\"lodging\"|\"point_of_interest\"|\"establishment\"]","location":{"lng":-95.36483009999999,"lat":29.7614654},"id":"cba849eae5d753e623e8734a582ac85e1ad1dfa8","iconUrl":"https://maps.gstatic.com/mapfiles/place_api/icons/lodging-71.png"},{"localName":"Residence Inn Houston Downtown/Convention Center","placeId":"ChIJ_bd6CTy_QIYRPUvShwshdf0","typesFilter":"[\"lodging\"|\"point_of_interest\"|\"establishment\"]","location":{"lng":-95.36688199999999,"lat":29.75532699999999},"openingHours":{"open_now":true,"weekday_text":[]},"id":"0dd119c02fc1c7fb8b52f30deaddf4c29af36980","iconUrl":"https://maps.gstatic.com/mapfiles/place_api/icons/lodging-71.png"},{"localName":"Courtyard Houston Downtown /Convention Center","placeId":"ChIJ_bd6CTy_QIYRSv5RC3sln3s","typesFilter":"[\"lodging\"|\"point_of_interest\"|\"establishment\"]","location":{"lng":-95.366839,"lat":29.755429},"openingHours":{"open_now":true,"weekday_text":[]},"id":"461d415a630dcfa337faa5aa8740ff752e6347e4","iconUrl":"https://maps.gstatic.com/mapfiles/place_api/icons/lodging-71.png"},{"localName":"Club Quarters Hotel in Houston","placeId":"ChIJB_NsLDu_QIYRZ3Buf7UtEeE","typesFilter":"[\"lodging\"|\"point_of_interest\"|\"establishment\"]","location":{"lng":-95.36291899999999,"lat":29.758271},"id":"ec1d01f3ed87a474838f3b7c9e9d96aba8b095a0","iconUrl":"https://maps.gstatic.com/mapfiles/place_api/icons/lodging-71.png"},{"localName":"The Whitehall Houston","placeId":"ChIJK1X9nkC_QIYRlp8QGc85bU8","typesFilter":"[\"night_club\"|\"bar\"|\"lodging\"|\"point_of_interest\"|\"establishment\"]","location":{"lng":-95.37325589999999,"lat":29.75365650000001},"openingHours":{"open_now":true,"weekday_text":[]},"id":"515e6876a1665f529865730b97ef253fd0736f4e","iconUrl":"https://maps.gstatic.com/mapfiles/place_api/icons/lodging-71.png"},{"localName":"Four Seasons Hotel Houston","placeId":"ChIJ3_iTyzy_QIYRxx2lem4-UTk","typesFilter":"[\"lodging\"|\"point_of_interest\"|\"establishment\"]","location":{"lng":-95.36268190000001,"lat":29.75406389999999},"openingHours":{"open_now":true,"weekday_text":[]},"id":"0f18d017d6a74874983ec3a414170810089057c5","iconUrl":"https://maps.gstatic.com/mapfiles/place_api/icons/lodging-71.png"},{"localName":"Athens Hotel & Suites","placeId":"ChIJtSftBD2_QIYRIGg5EYxUdoY","typesFilter":"[\"lodging\"|\"point_of_interest\"|\"establishment\"]","location":{"lng":-95.364617,"lat":29.75200499999999},"id":"ba430976f46b5e6b8ac0f9e978c3a92a0afb1cc0","iconUrl":"https://maps.gstatic.com/mapfiles/place_api/icons/lodging-71.png"},{"localName":"Embassy Suites Houston-Downtown","placeId":"ChIJOdSaICO_QIYRfWalq10i1WU","typesFilter":"[\"lodging\"|\"point_of_interest\"|\"establishment\"]","location":{"lng":-95.361339,"lat":29.752956},"openingHours":{"open_now":true,"weekday_text":[]},"id":"995255748d7a43a6a0fb5b13b5487729591ab5bb","iconUrl":"https://maps.gstatic.com/mapfiles/place_api/icons/lodging-71.png"},{"localName":"The Westin Houston Downtown","placeId":"ChIJczPsFyS_QIYRZU5WbX5ZIIo","typesFilter":"[\"lodging\"|\"point_of_interest\"|\"establishment\"]","location":{"lng":-95.3577809,"lat":29.7568456},"openingHours":{"open_now":true,"weekday_text":[]},"id":"a40ea3de9f17f0d4ad58dbadd521baaf9c9e6085","iconUrl":"https://maps.gstatic.com/mapfiles/place_api/icons/lodging-71.png"},{"localName":"The Grove","placeId":"ChIJdaSs5CK_QIYRE4los34KzVg","typesFilter":"[\"restaurant\"|\"food\"|\"point_of_interest\"|\"establishment\"]","location":{"lng":-95.3603442,"lat":29.7526903},"openingHours":{"open_now":false,"weekday_text":[]},"id":"b01f54943fc32957726a48de2ddb5bb127f31e7d","iconUrl":"https://maps.gstatic.com/mapfiles/place_api/icons/restaurant-71.png"},{"localName":"Hilton Americas-Houston","placeId":"ChIJS0Um9CK_QIYRMZIoGPpdjTE","typesFilter":"[\"lodging\"|\"point_of_interest\"|\"establishment\"]","location":{"lng":-95.3606442,"lat":29.7514902},"openingHours":{"open_now":true,"weekday_text":[]},"id":"8eb6b6ac622f47afb02054bd14e00bc595ea200f","iconUrl":"https://maps.gstatic.com/mapfiles/place_api/icons/lodging-71.png"},{"localName":"Holiday Inn Express & Suites Houston-Dwtn Conv Ctr","placeId":"ChIJJw6AQRi_QIYRNgO2SASbW-4","typesFilter":"[\"lodging\"|\"point_of_interest\"|\"establishment\"]","location":{"lng":-95.3608441,"lat":29.7485965},"openingHours":{"open_now":true,"weekday_text":[]},"id":"e579f9ba74ec02b478d9b7d1cb946a2d24e99d02","iconUrl":"https://maps.gstatic.com/mapfiles/place_api/icons/lodging-71.png"},{"localName":"La Colombe d'Or Hotel","placeId":"ChIJQ3ZFNWK_QIYRQ-DDqWgpr5Y","typesFilter":"[\"bar\"|\"lodging\"|\"point_of_interest\"|\"establishment\"]","location":{"lng":-95.3916064,"lat":29.74165929999999},"openingHours":{"open_now":false,"weekday_text":[]},"id":"c70e859494fb94c66a1e94757bf4a38707a98f39","iconUrl":"https://maps.gstatic.com/mapfiles/place_api/icons/lodging-71.png"},{"localName":"Howard Johnson Express Inn - Houston Downtown","placeId":"ChIJ0RLQjE7HQIYR2nDXaSG9QHs","typesFilter":"[\"lodging\"|\"point_of_interest\"|\"establishment\"]","location":{"lng":-95.40751209999999,"lat":29.7784168},"openingHours":{"open_now":true,"weekday_text":[]},"id":"91a46ea4a561e43234249610135eaaf12ab36769","iconUrl":"https://maps.gstatic.com/mapfiles/place_api/icons/lodging-71.png"},{"localName":"Hotel ZaZa","placeId":"ChIJTeRJv4G_QIYRi40tu_gfEsk","typesFilter":"[\"lodging\"|\"point_of_interest\"|\"establishment\"]","location":{"lng":-95.3902124,"lat":29.7242537},"id":"26987f3712c59c7e539f128a559b9ba12130f3d9","iconUrl":"https://maps.gstatic.com/mapfiles/place_api/icons/lodging-71.png"},{"localName":"Southwest Houston","placeId":"ChIJEVG4iSHqQIYRQK47pbV7jOQ","typesFilter":"[\"neighborhood\"|\"political\"]","location":{"lng":-95.4568133,"lat":29.6537418},"id":"30eddd0b1e95bbcb6a74e4c1a4d6ef60a85916a3","iconUrl":"https://maps.gstatic.com/mapfiles/place_api/icons/geocode-71.png"}]],"Source":{"lng":-118.2436849,"lat":34.0522342,"long_name":"Los Angeles; California","place_id":"ChIJE9on3F3HwoAR9AhGJW_fL-I"}},{"Destination":{"lng":-75.1652215,"lat":39.9525839,"long_name":"Philadelphia; Pennsylvania","place_id":"ChIJ60u11Ni3xokRwVg-jNgU9Yk"},"Stations":[[{"localName":"Los Angeles","placeId":"ChIJE9on3F3HwoAR9AhGJW_fL-I","typesFilter":"[\"locality\"|\"political\"]","location":{"lng":-118.2436849,"lat":34.0522342},"id":"7f7b7d8118ae8db8ed3f541159ac928c484d12ad","iconUrl":"https://maps.gstatic.com/mapfiles/place_api/icons/geocode-71.png"},{"localName":"Los Angeles City Hall","placeId":"ChIJ8U1fOU_GwoAR2t6y9AjKEKI","typesFilter":"[\"city_hall\"|\"premise\"|\"local_government_office\"|\"point_of_interest\"|\"establishment\"]","location":{"lng":-118.2428145,"lat":34.0537126},"id":"7f75c7158a6b7ceac9a8e54d1a28bacf6575a080","iconUrl":"https://maps.gstatic.com/mapfiles/place_api/icons/geocode-71.png"},{"localName":"Kawada Hotel","placeId":"ChIJk4UcFkzGwoARXX6vn9WOP1Q","typesFilter":"[\"lodging\"|\"point_of_interest\"|\"establishment\"]","location":{"lng":-118.2477057,"lat":34.0527171},"id":"a17b93ea9f4305523e93c90998efd9bf6e93d0c8","iconUrl":"https://maps.gstatic.com/mapfiles/place_api/icons/lodging-71.png"},{"localName":"Miyako Hotel Los Angeles","placeId":"ChIJN4KVwkfGwoARd235b3GLiYo","typesFilter":"[\"lodging\"|\"point_of_interest\"|\"establishment\"]","location":{"lng":-118.2402369,"lat":34.0496734},"id":"92ffe126a752d35a00f82e155d8b8edf9769a6ab","iconUrl":"https://maps.gstatic.com/mapfiles/place_api/icons/lodging-71.png"},{"localName":"Metro Plaza Hotel","placeId":"ChIJ2YN22kTGwoARshYCMmIIuQM","typesFilter":"[\"lodging\"|\"point_of_interest\"|\"establishment\"]","location":{"lng":-118.2376156,"lat":34.0588338},"id":"641731f7fe4d39901159452ed057b0d6e5e4a867","iconUrl":"https://maps.gstatic.com/mapfiles/place_api/icons/lodging-71.png"},{"localName":"Hilton Checkers Los Angeles","placeId":"ChIJU9oTm7THwoARF9dZF0pdn0U","typesFilter":"[\"lodging\"|\"restaurant\"|\"food\"|\"point_of_interest\"|\"establishment\"]","location":{"lng":-118.255,"lat":34.049626},"openingHours":{"open_now":true,"weekday_text":[]},"id":"a6002da196e36f74c4b4d3d2e50838973f9a9cfe","iconUrl":"https://maps.gstatic.com/mapfiles/place_api/icons/lodging-71.png"},{"localName":"Stay on Main Hotel","placeId":"ChIJQy-6bDXGwoARZln-R4MPoGQ","typesFilter":"[\"lodging\"|\"point_of_interest\"|\"establishment\"]","location":{"lng":-118.2507798,"lat":34.0442774},"id":"8e7a1b9dc43f5580a89669961defd25d7a67b263","iconUrl":"https://maps.gstatic.com/mapfiles/place_api/icons/lodging-71.png"},{"localName":"The L.A. Hotel Downtown","placeId":"ChIJ8wFsf63HwoARuDYVgplSZ9o","typesFilter":"[\"lodging\"|\"point_of_interest\"|\"establishment\"]","location":{"lng":-118.2554539,"lat":34.0550246},"openingHours":{"open_now":true,"weekday_text":[]},"id":"1f2377c0b75bb4122fd8eb31d565b3e891aa724e","iconUrl":"https://maps.gstatic.com/mapfiles/place_api/icons/lodging-71.png"},{"localName":"The Westin Bonaventure Hotel & Suites, Los Angeles","placeId":"ChIJ_X3CRLLHwoARRT04UFlchVE","typesFilter":"[\"lodging\"|\"point_of_interest\"|\"establishment\"]","location":{"lng":-118.255893,"lat":34.052784},"openingHours":{"open_now":true,"weekday_text":[]},"id":"6a13d5b0f8e7bf65e2e914291b13824e91c9f902","iconUrl":"https://maps.gstatic.com/mapfiles/place_api/icons/lodging-71.png"},{"localName":"The Los Angeles Athletic Club","placeId":"ChIJ-_RdD7XHwoARN0-Zc_fk4ZA","typesFilter":"[\"lodging\"|\"point_of_interest\"|\"establishment\"]","location":{"lng":-118.2550311,"lat":34.0465967},"id":"31ca02766c4c50704857ec437055af9b02093f06","iconUrl":"https://maps.gstatic.com/mapfiles/place_api/icons/lodging-71.png"},{"localName":"The Standard Downtown LA","placeId":"ChIJ71dGk7PHwoARHWr_QGbZIGU","typesFilter":"[\"lodging\"|\"restaurant\"|\"food\"|\"point_of_interest\"|\"establishment\"]","location":{"lng":-118.2569631,"lat":34.0501654},"id":"732a4100780e3d0cbc0242119ac7cd4683bd2232","iconUrl":"https://maps.gstatic.com/mapfiles/place_api/icons/lodging-71.png"},{"localName":"Best Western Plus Dragon Gate Inn","placeId":"ChIJHa52O1rGwoARer87_e2fc1M","typesFilter":"[\"lodging\"|\"point_of_interest\"|\"establishment\"]","location":{"lng":-118.238908,"lat":34.0631792},"openingHours":{"open_now":true,"weekday_text":[]},"id":"21641302d12987258eda8eea2e0e259c15ea6ec9","iconUrl":"https://maps.gstatic.com/mapfiles/place_api/icons/lodging-71.png"},{"localName":"Sheraton Los Angeles Downtown Hotel","placeId":"ChIJmRr_HrTHwoARjigvltPYgzo","typesFilter":"[\"lodging\"|\"point_of_interest\"|\"establishment\"]","location":{"lng":-118.258374,"lat":34.047858},"openingHours":{"open_now":true,"weekday_text":[]},"id":"9315b38925bc468c40f76500b94350528547c544","iconUrl":"https://maps.gstatic.com/mapfiles/place_api/icons/lodging-71.png"},{"localName":"The Milner Hotel Downtown Los Angeles","placeId":"ChIJ55_V6bbHwoARijuc6LIE0X8","typesFilter":"[\"lodging\"|\"point_of_interest\"|\"establishment\"]","location":{"lng":-118.260768,"lat":34.047144},"id":"982c028abac06d376497f4d905a2cf86aa77f265","iconUrl":"https://maps.gstatic.com/mapfiles/place_api/icons/lodging-71.png"},{"localName":"The Royal Pagoda Motel","placeId":"ChIJZ_AkO1nGwoARNy378Aycqnw","typesFilter":"[\"lodging\"|\"point_of_interest\"|\"establishment\"]","location":{"lng":-118.236335,"lat":34.066712},"id":"58721f91d742d0035aba4207de15a1c67087696d","iconUrl":"https://maps.gstatic.com/mapfiles/place_api/icons/lodging-71.png"},{"localName":"Knights Inn Los Angeles Central/Conventions Center Area","placeId":"ChIJy0JcEwDHwoARFYis_tnpviw","typesFilter":"[\"lodging\"|\"point_of_interest\"|\"establishment\"]","location":{"lng":-118.253828,"lat":34.0661834},"openingHours":{"open_now":true,"weekday_text":[]},"id":"b562d69a1a24a38169c7f725cafba2127263d5a6","iconUrl":"https://maps.gstatic.com/mapfiles/place_api/icons/lodging-71.png"},{"localName":"Americas Best Value Inn","placeId":"ChIJkzUHorrHwoAR0k1roUPEjvM","typesFilter":"[\"lodging\"|\"point_of_interest\"|\"establishment\"]","location":{"lng":-118.26468,"lat":34.0514703},"openingHours":{"open_now":true,"weekday_text":[]},"id":"b73c1d94b4e126a8838839de7aeae607a861ad6f","iconUrl":"https://maps.gstatic.com/mapfiles/place_api/icons/lodging-71.png"},{"localName":"City Center Hotel","placeId":"ChIJBRsno7rHwoARfpG-chZoMxM","typesFilter":"[\"lodging\"|\"point_of_interest\"|\"establishment\"]","location":{"lng":-118.2650043,"lat":34.051523},"id":"7f6514173826a109a82862519df691909daa91e2","iconUrl":"https://maps.gstatic.com/mapfiles/place_api/icons/lodging-71.png"},{"localName":"Hotel Figueroa","placeId":"ChIJzcQQfbfHwoAREpay4PPzicU","typesFilter":"[\"lodging\"|\"point_of_interest\"|\"establishment\"]","location":{"lng":-118.2640486,"lat":34.0455317},"openingHours":{"open_now":true,"weekday_text":[]},"id":"0a9302b82c33f27f2448edd68d3a18f90d473e27","iconUrl":"https://maps.gstatic.com/mapfiles/place_api/icons/lodging-71.png"},{"localName":"Glendale","placeId":"ChIJqYPwyDLAwoARpibJ_p6hP-U","typesFilter":"[\"locality\"|\"political\"]","location":{"lng":-118.255075,"lat":34.1425078},"id":"01b238406f7bd5ce1a195b0b80f227b6a8a78797","iconUrl":"https://maps.gstatic.com/mapfiles/place_api/icons/geocode-71.png"}],[{"localName":"Antares","placeId":"ChIJ24Xv0afJzYAR47zj625z1dU","typesFilter":"[\"locality\"|\"political\"]","location":{"lng":-113.808312,"lat":35.420208},"id":"1847c7783b468b2c0514cb559fa714e4fdc8370f","iconUrl":"https://maps.gstatic.com/mapfiles/place_api/icons/geocode-71.png"},{"localName":"Valle Vista Country Club & Golf Course","placeId":"ChIJcxReQLTOzYARV559Pxz6WKU","typesFilter":"[\"point_of_interest\"|\"establishment\"]","location":{"lng":-113.858537,"lat":35.4048634},"openingHours":{"open_now":false,"weekday_text":[]},"id":"cfa147d5d63241867ebf5c87f37e62a2e553ada2","iconUrl":"https://maps.gstatic.com/mapfiles/place_api/icons/generic_business-71.png"},{"localName":"Stetson Winery","placeId":"ChIJnZ1_zR3MzYARGXilIJ12sk4","typesFilter":"[\"food\"|\"point_of_interest\"|\"establishment\"]","location":{"lng":-113.8755533,"lat":35.4418568},"id":"13ef29428a4ff1f084d5feb75f472008009ef998","iconUrl":"https://maps.gstatic.com/mapfiles/place_api/icons/generic_business-71.png"},{"localName":"Horsman Plumbing","placeId":"ChIJbTorDLHOzYARERTZZyNg3n8","typesFilter":"[\"plumber\"|\"point_of_interest\"|\"establishment\"]","location":{"lng":-113.862193,"lat":35.427974},"openingHours":{"open_now":false,"weekday_text":[]},"id":"9e96885a74181ef2a358214d51cb109fd7783aa4","iconUrl":"https://maps.gstatic.com/mapfiles/place_api/icons/generic_business-71.png"},{"localName":"Pipestone Builders II Inc.","placeId":"ChIJCbtrKmTJzYARGEqHMSQucZg","typesFilter":"[\"general_contractor\"|\"home_goods_store\"|\"store\"|\"point_of_interest\"|\"establishment\"]","location":{"lng":-113.828651,"lat":35.44171},"id":"c0d05ec2375074d5af4813e09f6240af9e13ff65","iconUrl":"https://maps.gstatic.com/mapfiles/place_api/icons/generic_business-71.png"},{"localName":"Valle Vista Property Owners","placeId":"ChIJH1B7ldTOzYAR1iUTBS4fx0A","typesFilter":"[\"bar\"|\"point_of_interest\"|\"establishment\"]","location":{"lng":-113.8627459,"lat":35.4251308},"openingHours":{"open_now":false,"weekday_text":[]},"id":"3c14d5c96293a6479d05e24109938ba2d69ab2f4","iconUrl":"https://maps.gstatic.com/mapfiles/place_api/icons/generic_business-71.png"},{"localName":"Getthetea.Com","placeId":"ChIJS_g3KMvOzYARSgORfbbtnbM","typesFilter":"[\"cafe\"|\"food\"|\"point_of_interest\"|\"establishment\"]","location":{"lng":-113.8590784,"lat":35.4195191},"id":"c97b9e5e603359b074f38067a86434a62681b553","iconUrl":"https://maps.gstatic.com/mapfiles/place_api/icons/cafe-71.png"},{"localName":"Four Aces Painting & Remodeling","placeId":"ChIJCbtrKmTJzYAR0SkGtZNuQ4E","typesFilter":"[\"painter\"|\"point_of_interest\"|\"establishment\"]","location":{"lng":-113.828651,"lat":35.44171},"id":"aa045e2bc9313273d3df6375be2d076932a1765b","iconUrl":"https://maps.gstatic.com/mapfiles/place_api/icons/generic_business-71.png"},{"localName":"Superior Plus Energy Services","placeId":"ChIJCbtrKmTJzYAR1JrZ2ZHmohQ","typesFilter":"[\"point_of_interest\"|\"establishment\"]","location":{"lng":-113.828651,"lat":35.44171},"id":"bb13a3567545f59807fcc0c5b51e532d3f0bc25a","iconUrl":"https://maps.gstatic.com/mapfiles/place_api/icons/generic_business-71.png"},{"localName":"Cerbat Water Co","placeId":"ChIJCyy6bsrIzYAR8PNZp_GON9M","typesFilter":"[\"point_of_interest\"|\"establishment\"]","location":{"lng":-113.854574,"lat":35.3824539},"id":"5eacac457cd4ac0215e57694c15405fd49f686c4","iconUrl":"https://maps.gstatic.com/mapfiles/place_api/icons/civic_building-71.png"},{"localName":"Mike's Route 66 Outpost & Saloon","placeId":"ChIJHWcFrcTIzYARBAutWFoRgkU","typesFilter":"[\"bar\"|\"point_of_interest\"|\"establishment\"]","location":{"lng":-113.841229,"lat":35.394778},"openingHours":{"open_now":false,"weekday_text":[]},"id":"a81bc92a5f916adc25ea913b47297076197f44ad","iconUrl":"https://maps.gstatic.com/mapfiles/place_api/icons/bar-71.png"},{"localName":"Truxton Canyon Water Co Inc","placeId":"ChIJPfefaEjczYARv82DtBPyJ98","typesFilter":"[\"point_of_interest\"|\"establishment\"]","location":{"lng":-113.85476,"lat":35.38241},"id":"613314734f67b8a215807b5ab478f2f48e94b21a","iconUrl":"https://maps.gstatic.com/mapfiles/place_api/icons/civic_building-71.png"},{"localName":"Top Traders Inc","placeId":"ChIJz42wqsjIzYARZH0XWmuw0LI","typesFilter":"[\"bank\"|\"finance\"|\"point_of_interest\"|\"establishment\"]","location":{"lng":-113.8466362,"lat":35.3885679},"openingHours":{"open_now":true,"weekday_text":[]},